City_ID,City,Lat,Lng,Max Temp,Humidity,Cloudiness,Wind Speed,Country,Date
0,invercargill,-46.4,168.35,17.79,45,4,2.68,NZ,1698630384
1,queenstown,-31.8976,26.8753,3.82,82,26,4.83,ZA,1698630445
2,puerto armuelles,8.2833,-82.8667,27.27,75,73,4.47,PA,1698631094
3,tazacorte,28.629,-17.9293,21.54,80,0,3.13,ES,1698630916
4,yellowknife,62.456,-114.3525,-7.55,98,20,0.89,CA,1698630619
5,yardimli,38.9206,48.2372,11.1,77,7,2.26,AZ,1698631095
6,jayapura,-2.5333,140.7,25.66,84,100,2.21,ID,1698630658
7,bethel,41.3712,-73.414,9.55,89,100,3.09,US,1698630340
8,langzhong,31.5504,105.9938,19.29,70,53,1.26,CN,1698631095
9,edinburgh of the seven seas,-37.0676,-12.3116,10.77,65,38,12.19,SH,1698630618
10,port-aux-francais,-49.35,70.2167,1.82,63,79,11.82,TF,1698630615
11,grytviken,-54.2811,-36.5092,3.87,99,100,4.06,GS,1698630618
12,pointe-noire,-4.7761,11.8635,26.04,94,75,5.66,CG,1698630645
13,talnakh,69.4865,88.3972,-19.33,93,33,2.04,RU,1698630614
14,adamstown,-25.066,-130.1015,22.67,81,100,4.41,PN,1698630615
15,avarua,-21.2078,-159.775,24.03,64,100,3.6,CK,1698630406
16,bilibino,68.0546,166.4372,-19.82,89,12,1.78,RU,1698630614
17,badger,64.8,-147.5333,-2.02,88,100,1.54,US,1698630401
18,petropavlovsk-kamchatsky,53.0452,158.6483,3.03,59,75,3.0,RU,1698630430
19,yamba,-5.9,22.3,22.52,88,63,0.19,CD,1698631097
20,serta,39.8085,-8.0988,13.3,94,48,1.24,PT,1698631097
21,aasiaat,68.7098,-52.8699,-4.49,78,100,3.76,GL,1698630649
22,afaahiti,-17.75,-149.2833,26.93,82,44,7.57,PF,1698630639
23,la ronge,55.1001,-105.2842,-1.86,64,100,7.72,CA,1698631097
24,thompson,55.7435,-97.8558,-3.91,74,75,3.6,CA,1698630617
25,mao,39.8885,4.2658,19.31,94,40,2.06,ES,1698631098
26,kalianget,-7.05,113.9333,29.85,59,25,5.12,ID,1698631098
27,isafjordur,66.0755,-23.124,1.0,81,21,1.47,IS,1698630383
28,arcelia,18.2833,-100.2667,23.66,90,3,1.19,MX,1698631098
29,puerto natales,-51.7236,-72.4875,1.43,87,95,1.77,CL,1698630619
30,alofi,-19.0595,-169.9187,26.94,74,6,8.23,NU,1698630622
31,brookings,44.3114,-96.7984,-2.72,86,100,5.14,US,1698631099
32,olonkinbyen,70.9221,-8.7187,0.31,69,100,1.75,SJ,1698630402
33,mahina,-17.5065,-149.489,27.87,69,40,3.09,PF,1698631099
34,shingu,33.7333,135.9833,19.43,49,0,1.51,JP,1698630407
35,stanley,54.868,-1.6985,7.38,95,75,2.06,GB,1698630635
36,kingston,17.997,-76.7936,28.53,83,20,4.12,JM,1698631100
37,casablanca,33.5928,-7.6192,21.12,67,100,7.16,MA,1698631100
38,umluj,25.0213,37.2685,26.79,61,0,1.25,SA,1698631100
39,puerto ayora,-0.7393,-90.3518,24.19,90,100,3.13,EC,1698630616
40,sagua la grande,22.8067,-80.0756,24.85,86,7,3.88,CU,1698631100
41,cidreira,-30.1811,-50.2056,20.48,89,100,3.37,BR,1698630617
42,hermanus,-34.4187,19.2345,12.81,62,0,9.89,ZA,1698630639
43,alaghsas,17.0187,8.0168,25.53,11,3,4.47,NE,1698631101
44,ushuaia,-54.8,-68.3,0.81,75,75,7.72,AR,1698630610
45,port alfred,-33.5906,26.891,14.84,63,97,8.09,ZA,1698630614
46,fallon,39.4735,-118.7774,5.93,28,0,3.09,US,1698630819
47,saint-pierre-les-elbeuf,49.279,1.0431,11.5,91,94,5.14,FR,1698631101
48,naze,28.3667,129.4833,23.51,68,19,4.04,JP,1698631102
49,viechtach,49.0792,12.8847,12.25,83,100,1.79,DE,1698631102
50,vorgashor,67.5833,63.95,-18.54,99,34,2.11,RU,1698630637
51,puerto san jose,13.9256,-90.8244,25.9,85,100,4.38,GT,1698631102
52,georgetown,5.4112,100.3354,27.96,83,20,3.09,MY,1698630631
53,iqaluit,63.7506,-68.5145,-7.15,68,100,6.17,CA,1698630383
54,le port,-20.9373,55.2919,25.0,92,8,3.39,RE,1698631103
55,punta arenas,-53.15,-70.9167,5.06,56,0,8.23,CL,1698630407
56,taoudenni,22.6783,-3.9836,29.77,12,0,3.39,ML,1698631103
57,igarka,67.4667,86.5833,-17.24,97,44,1.17,RU,1698631103
58,bealanana,-14.55,48.7333,16.59,96,64,1.36,MG,1698631103
59,fale old settlement,-9.3852,-171.2468,28.86,70,100,4.73,TK,1698630644
60,waitangi,-43.9535,-176.5597,13.79,74,14,3.13,NZ,1698630618
61,qacha's nek,-30.1154,28.6894,-1.88,84,44,1.25,LS,1698631104
62,papao,-17.75,-149.55,27.82,82,11,8.3,PF,1698630642
63,atafu village,-8.5421,-172.5159,29.05,71,98,5.93,TK,1698630629
64,vila franca do campo,37.7167,-25.4333,14.93,99,100,1.1,PT,1698630620
65,maintirano,-18.0667,44.0167,24.59,83,2,4.33,MG,1698631105
66,enewetak,11.3474,162.3373,28.94,71,88,9.11,MH,1698631105
67,kushiro,42.975,144.3747,11.53,71,75,1.03,JP,1698630989
68,krapina,46.1608,15.8789,18.08,79,100,3.75,HR,1698631105
69,tiksi,71.6872,128.8694,-15.49,96,99,3.1,RU,1698631105
70,west island,-12.1568,96.8225,26.99,78,75,6.17,CC,1698631105
71,mumbwa,-14.9783,27.0619,21.63,59,99,4.39,ZM,1698631106
72,saskatoon,52.1168,-106.6345,-2.01,74,75,3.6,CA,1698631106
73,ilulissat,69.2167,-51.1,-6.04,87,100,3.12,GL,1698631106
74,codrington,-38.2667,141.9667,12.28,87,100,6.99,AU,1698631106
75,tralee,52.2704,-9.7026,8.52,94,95,1.95,IE,1698631106
76,acapulco de juarez,16.8634,-99.8901,27.07,84,55,2.81,MX,1698631107
77,qaqortoq,60.7167,-46.0333,4.01,77,100,4.88,GL,1698631107
78,alice springs,-23.7,133.8833,35.75,5,22,5.66,AU,1698631107
79,puerto baquerizo moreno,-0.9,-89.6,23.3,79,100,4.68,EC,1698631107
80,burang,30.25,81.1667,0.48,66,4,0.98,CN,1698631107
81,happy valley-goose bay,53.3168,-60.3315,-0.83,55,75,10.29,CA,1698631107
82,chaman,30.9236,66.4512,16.05,38,2,1.37,PK,1698631108
83,jamestown,42.097,-79.2353,8.59,97,100,1.34,US,1698631068
84,hamilton,39.1834,-84.5333,13.75,96,100,3.09,US,1698631002
85,lihue,21.9789,-159.3672,28.58,74,40,4.63,US,1698630940
86,moura,38.1401,-7.4486,15.06,90,100,3.88,PT,1698631108
87,petoskey,45.3733,-84.9553,2.83,92,100,1.54,US,1698630872
88,ain taya,36.7933,3.2869,15.91,94,40,2.57,DZ,1698631109
89,luorong,24.4058,109.6086,23.19,71,29,2.52,CN,1698631109
90,blackmans bay,-43.0167,147.3167,18.07,53,89,0.45,AU,1698631109
91,itoigawa,37.0333,137.85,17.79,82,100,1.57,JP,1698631109
92,novovarshavka,54.1721,74.6946,-1.93,94,100,6.68,RU,1698631109
93,faya-largeau,17.9257,19.1043,25.18,18,6,7.98,TD,1698631110
94,aykhal,66.0,111.5,-22.05,97,92,1.38,RU,1698631110
95,great falls,47.5002,-111.3008,-3.34,74,0,5.66,US,1698630959
96,carutapera,-1.195,-46.02,26.21,78,48,3.72,BR,1698631110
97,kimbe,-5.5502,150.1429,29.02,78,85,0.84,PG,1698631110
98,kodiak,57.79,-152.4072,8.73,93,100,3.09,US,1698631110
99,morondava,-20.2833,44.2833,22.33,77,0,3.74,MG,1698631111
100,manaure,11.7751,-72.4445,27.98,77,68,2.4,CO,1698631111
101,tazovsky,67.4667,78.7,-16.53,94,23,0.99,RU,1698631111
102,hami,42.8,93.45,12.46,34,38,1.22,CN,1698631111
103,sferracavallo,42.726,12.0956,19.13,79,80,2.06,IT,1698631111
104,newman,37.3138,-121.0208,18.19,32,0,0.45,US,1698631112
105,limulunga,-15.0969,23.1376,20.18,74,55,2.03,ZM,1698631112
106,tofol,5.3248,163.0078,28.88,74,100,5.14,FM,1698631112
107,hawaiian paradise park,19.5933,-154.9731,27.8,76,75,2.57,US,1698631112
108,wailua homesteads,22.0669,-159.378,28.24,75,40,4.63,US,1698631112
109,puerto real,36.5282,-6.1901,18.47,91,100,7.81,ES,1698631112
110,dryden,49.7833,-92.7503,-5.84,93,100,3.6,CA,1698631113
111,barra de santo antonio,-9.4047,-35.5072,22.6,75,88,4.23,BR,1698631113
112,kapuskasing,49.4169,-82.4331,-1.95,86,75,0.51,CA,1698631113
113,longyearbyen,78.2186,15.6401,-4.09,86,75,5.14,SJ,1698631113
114,ust-nera,64.5667,143.2,-11.76,92,100,0.53,RU,1698631113
115,tahe,52.3333,124.7333,-1.97,46,6,5.35,CN,1698631113
116,st. john's,47.5649,-52.7093,4.98,66,75,13.38,CA,1698631114
117,crane,31.3974,-102.3501,3.17,77,100,9.24,US,1698631114
118,cadale,2.7603,46.3222,25.69,78,100,1.66,SO,1698631114
119,hammerfest,70.6634,23.6821,-0.75,93,75,5.14,NO,1698631114
120,segou,13.4317,-6.2157,28.57,44,48,2.87,ML,1698631114
121,kone,-21.0595,164.8658,25.87,42,2,4.58,NC,1698631115
122,margaret river,-33.95,115.0667,14.62,55,100,3.72,AU,1698631115
123,papatowai,-46.5619,169.4708,14.72,56,7,5.48,NZ,1698631115
124,arawa,-6.2132,155.5367,31.06,64,98,2.44,PG,1698631115
125,fada,9.5667,8.3,21.66,39,99,1.82,NG,1698631115
126,sorong,-0.8833,131.25,28.9,71,60,2.57,ID,1698631116
127,litayan,7.3358,124.0347,27.5,76,9,0.74,PH,1698631116
128,safi,32.1667,-8.8333,18.24,72,100,6.01,MA,1698631116
129,illizi,26.4833,8.4667,22.89,20,7,3.3,DZ,1698631116
130,benghazi,32.1167,20.0667,21.9,77,11,4.15,LY,1698631116
131,anadyr,64.75,177.4833,-1.72,92,75,9.0,RU,1698631117
132,whitehorse,60.7161,-135.0538,-0.55,86,100,7.2,CA,1698630996
133,pandan,14.0453,124.1694,28.58,79,57,5.67,PH,1698631117
134,susuman,62.7833,148.1667,-13.34,92,88,0.89,RU,1698631117
135,midvagur,62.0511,-7.1939,4.46,75,75,2.57,FO,1698631117
136,uturoa,-16.7333,-151.4333,26.57,78,7,5.97,PF,1698631118
137,san patricio,28.017,-97.5169,27.92,77,5,9.23,US,1698631118
138,sherbrooke,45.4001,-71.8991,3.11,81,100,2.06,CA,1698630641
139,klyuchi,52.2667,79.1667,0.13,97,100,3.55,RU,1698631118
140,katsuura,35.1333,140.3,19.43,53,0,4.11,JP,1698631119
141,serhetabat,35.2799,62.3438,17.08,36,0,0.12,TM,1698631119
142,lebu,-37.6167,-73.65,7.65,63,20,1.86,CL,1698631119
143,antsiranana,-12.2787,49.2917,24.35,79,94,7.27,MG,1698631119
144,severo-yeniseyskiy,60.3725,93.0408,-15.79,99,86,0.89,RU,1698630977
145,port mathurin,-19.6833,63.4167,24.75,79,13,6.82,MU,1698631087
146,belyy yar,53.6039,91.3903,-8.06,86,0,0.0,RU,1698631120
147,kristiansund,63.1115,7.732,0.36,74,3,2.57,NO,1698631120
148,tughyl,47.7252,84.2063,7.34,95,100,3.8,KZ,1698631120
149,waingapu,-9.6567,120.2641,30.76,59,56,4.7,ID,1698631120
150,elko,41.0002,-115.5012,3.01,37,0,0.89,US,1698631120
151,pampa del indio,-26.0647,-59.919,26.73,70,100,3.1,AR,1698631121
152,constantia,44.1833,28.65,14.38,71,0,3.5,RO,1698631121
153,guarapuava,-25.3953,-51.4581,16.31,99,100,0.53,BR,1698631121
154,chonchi,-42.6128,-73.8092,4.56,96,100,3.16,CL,1698631121
155,makoua,0.0069,15.6333,24.39,80,99,0.61,CG,1698631121
156,bikenibeu village,1.3673,173.1241,31.98,62,40,1.54,KI,1698631121
157,sompeta,18.9333,84.6,24.6,64,5,2.05,IN,1698631122
158,romorantin-lanthenay,47.4167,1.8333,12.81,88,100,4.12,FR,1698631122
159,hithadhoo,-0.6,73.0833,27.14,79,29,7.46,MV,1698631122
160,choyr,46.3611,108.3611,1.14,44,100,7.38,MN,1698631122
161,kaedi,16.1465,-13.5047,30.52,31,0,4.15,MR,1698631122
162,greymouth,-42.4667,171.2,15.07,51,100,3.91,NZ,1698630991
163,cabo san lucas,22.8909,-109.9124,26.45,73,0,0.45,MX,1698630957
164,saint-philippe,-21.3585,55.7679,24.77,85,47,4.91,RE,1698631123
165,palikir - national government center,6.9248,158.1611,26.41,89,100,1.03,FM,1698631123
166,mpika,-11.8343,31.4529,20.8,48,99,2.61,ZM,1698631123
167,luderitz,-26.6481,15.1594,21.5,27,4,4.09,NA,1698631123
168,selfoss,63.9331,-20.9971,-1.09,72,76,2.94,IS,1698631124
169,ribeira grande,38.5167,-28.7,17.5,63,100,0.76,PT,1698631124
170,pacifica,37.6138,-122.4869,19.2,42,0,5.14,US,1698631124
171,arteche,12.2645,125.4048,27.72,87,100,4.61,PH,1698631124
172,sena madureira,-9.0656,-68.6569,23.02,84,83,1.28,BR,1698630644
173,camayenne,9.535,-13.6878,28.05,89,20,3.09,GN,1698631125
174,fuxin,42.0156,121.6589,13.13,26,0,4.36,CN,1698631125
175,gulf breeze,30.3571,-87.1639,23.3,93,0,0.0,US,1698631125
176,tura,25.5198,90.2201,22.89,82,1,0.54,IN,1698630444
177,odoyev,53.9393,36.6864,-1.21,92,100,2.61,RU,1698631125
178,sur,22.5667,59.5289,26.88,63,86,1.96,OM,1698631126
179,beau vallon,-20.4189,57.6953,22.34,94,20,0.0,MU,1698631126
180,longgang,37.6508,120.3286,19.95,57,23,5.35,CN,1698631126
181,balaipungut,1.05,101.2833,27.05,86,61,0.9,ID,1698631126
182,kudahuvadhoo,2.6708,72.8944,27.83,71,85,5.89,MV,1698630667
183,shahrak,34.1074,64.3052,4.78,63,0,1.35,AF,1698631126
184,bredasdorp,-34.5322,20.0403,13.09,59,0,8.89,ZA,1698630620
185,ban talat bueng,13.0715,101.0031,30.97,75,96,3.49,TH,1698631127
186,portland,45.5234,-122.6762,11.33,49,0,4.92,US,1698630919
187,buenavista,8.9769,125.4089,30.33,63,48,0.61,PH,1698631127
188,sabang,5.8933,95.3214,27.6,75,100,3.18,ID,1698630611
189,plouzane,48.3833,-4.6167,12.03,85,75,5.66,FR,1698630932
190,taro,-8.3862,115.28,27.0,45,29,1.59,ID,1698630655
191,utrik,11.2278,169.8474,28.09,80,39,9.01,MH,1698630610
192,guozhen,34.3659,107.359,20.68,51,1,1.32,CN,1698631128
193,salinas,36.6777,-121.6555,19.43,60,0,1.54,US,1698630618
194,cooper's town,26.8667,-77.5167,25.84,71,4,10.14,BS,1698630625
195,weno,7.4515,151.8468,27.95,79,95,4.88,FM,1698630635
196,esperanza,19.5847,-70.9849,27.32,91,93,1.34,DO,1698631128
197,nadi,-17.8,177.4167,30.0,62,20,7.72,FJ,1698630654
198,batticaloa,7.7102,81.6924,26.15,80,83,1.86,LK,1698631129
199,college,64.8569,-147.8028,-1.97,86,75,1.54,US,1698630379
200,el calafate,-50.3408,-72.2768,3.58,65,5,4.29,AR,1698630621
201,timbuktu,16.7735,-3.0074,28.69,11,78,2.94,ML,1698631129
202,flying fish cove,-10.4217,105.6791,27.82,78,100,6.17,CX,1698630660
203,albany,42.6001,-73.9662,6.88,93,100,0.79,US,1698630585
204,port macquarie,-31.4333,152.9167,26.61,50,0,6.63,AU,1698631130
205,callao,-12.0667,-77.15,22.07,77,20,6.69,PE,1698631098
206,nar'yan-mar,67.6713,53.087,-8.83,86,100,5.81,RU,1698630421
207,poninka,50.1849,27.5363,11.84,68,100,5.0,UA,1698631130
208,port elizabeth,-33.918,25.5701,13.16,84,75,4.63,ZA,1698630386
209,okondja,-0.6549,13.6753,22.54,92,100,0.7,GA,1698630919
210,santa cruz del norte,23.1539,-81.9236,26.28,79,14,7.24,CU,1698631131
211,nova sintra,14.8667,-24.7167,22.67,72,85,3.13,CV,1698630624
212,posto fiscal rolim de moura,-13.0833,-62.2667,28.22,55,47,1.64,BR,1698631131
213,conception bay south,47.4999,-52.9981,4.85,68,10,10.08,CA,1698631131
214,avenal,36.0041,-120.129,17.87,37,0,0.97,US,1698631131
215,soio,-6.1349,12.3689,25.39,90,97,5.15,AO,1698630646
216,karratha,-20.7377,116.8463,35.7,20,74,2.06,AU,1698631132
217,tobias barreto,-11.1839,-37.9983,20.01,95,8,2.64,BR,1698631025
218,hilo,19.7297,-155.09,27.92,78,75,2.57,US,1698631132
219,belmonte,-15.8631,-38.8828,24.04,73,56,4.26,BR,1698631132
220,andapa,-14.65,49.65,18.39,97,61,0.58,MG,1698631132
221,libenge,3.65,18.6333,22.06,96,67,0.71,CD,1698631132
222,nagqu,31.5,92.0,-3.79,78,100,1.22,CN,1698631133
223,zaria,11.1113,7.7227,23.18,24,100,3.47,NG,1698631133
224,mount pearl,47.5166,-52.7813,4.52,67,75,13.38,CA,1698631133
225,las veredas,23.1388,-109.7075,26.09,78,6,1.39,MX,1698631133
226,geraldton,-28.7667,114.6,22.23,53,2,6.17,AU,1698630504
227,karangsembung,-6.8487,108.6422,31.6,50,76,2.38,ID,1698631134
228,dudinka,69.4058,86.1778,-19.1,100,65,0.6,RU,1698630613
229,las palmas,28.4204,-14.0131,19.24,83,0,2.57,ES,1698631134
230,saynshand,44.8824,110.1163,7.31,40,95,8.5,MN,1698631134
231,itoman,26.1247,127.6694,27.43,57,20,5.14,JP,1698631134
232,ofunato,39.0717,141.7167,16.72,58,0,2.56,JP,1698631135
233,ketchikan,55.3422,-131.6461,6.99,75,100,0.0,US,1698631135
234,alfena,41.2367,-8.5245,14.65,79,40,3.6,PT,1698631135
235,banda aceh,5.5577,95.3222,27.74,72,100,2.02,ID,1698630632
236,walvis bay,-22.9575,14.5053,13.76,88,0,2.64,NA,1698631135
237,yanykurgan,43.915,67.2481,15.06,54,43,2.41,KZ,1698631136
238,allen,41.0706,-85.0144,7.33,96,100,3.6,US,1698630531
239,vilyuchinsk,52.9306,158.4028,3.85,65,99,3.42,RU,1698630655
240,aswan,24.0934,32.907,27.61,57,0,2.57,EG,1698631136
241,suva,-18.1416,178.4415,29.71,74,75,4.12,FJ,1698630624
242,harstad,68.799,16.5293,-1.03,90,100,0.89,NO,1698631137
243,saida,34.8303,0.1517,11.88,42,97,4.08,DZ,1698631137
244,betare oya,5.6,14.0833,20.02,91,92,1.5,CM,1698631137
245,douentza,14.9951,-2.9517,27.26,25,58,0.9,ML,1698631137
246,niigata,37.9022,139.0236,15.51,88,75,2.57,JP,1698631081
247,bubaque,11.2833,-15.8333,27.62,77,89,3.21,GW,1698630646
248,tutoia,-2.7619,-42.2744,26.9,78,67,5.51,BR,1698631138
249,courtenay,49.6866,-124.9936,7.96,79,40,1.03,CA,1698631138
250,inari,68.906,27.0288,-9.89,96,100,1.33,FI,1698631138
251,kavaratti,10.5669,72.642,27.73,72,100,1.52,IN,1698630631
252,hun,29.1268,15.9477,20.0,54,76,3.32,LY,1698631138
253,caleta de carquin,-11.0925,-77.6267,19.63,86,93,4.23,PE,1698630657
254,fort st. john,56.2499,-120.8529,-1.06,69,75,1.54,CA,1698630360
255,udachny,66.4167,112.4,-21.42,83,95,2.39,RU,1698630611
256,qarazhal,48.0078,70.7903,10.98,82,84,8.98,KZ,1698631139
257,daru,-9.0763,143.2092,26.3,81,100,7.86,PG,1698630617
258,kailua-kona,19.6406,-155.9956,30.28,65,0,4.12,US,1698630634
259,harper,4.375,-7.7169,25.13,89,0,2.02,LR,1698631139
260,tosontsengel,48.7567,98.2839,-2.67,90,100,1.81,MN,1698631140
261,isangel,-19.55,169.2667,26.06,73,20,3.6,VU,1698630486
262,ta`u,-14.2336,-169.5144,27.06,81,90,6.9,AS,1698630663
263,yuzhno-kurilsk,44.0306,145.8556,7.99,76,3,1.44,RU,1698630620
264,severnoye,56.3491,78.3619,-6.12,87,100,2.24,RU,1698631140
265,skeldon,5.8833,-57.1333,27.35,85,48,3.83,GY,1698631140
266,keflavik,64.0049,-22.5624,4.24,75,0,2.57,IS,1698630397
267,qashyr,53.0675,76.1036,-0.68,97,100,7.08,KZ,1698631141
268,saint-joseph,-21.3667,55.6167,24.21,84,24,4.68,RE,1698631141
269,copala,16.65,-98.9833,26.16,86,36,2.05,MX,1698630633
270,qamdo,31.1667,97.2333,-1.28,30,100,1.31,CN,1698630970
271,san jose de guanipa,8.8872,-64.1651,27.22,71,62,2.29,VE,1698631141
272,paragominas,-2.9667,-47.4833,25.29,62,5,1.61,BR,1698631142
273,ilha de mocambique,-15.0342,40.7358,25.59,84,0,1.65,MZ,1698631142
274,carlos chagas,-17.7031,-40.7664,23.23,67,83,3.84,BR,1698631142
275,kerikeri,-35.2268,173.9474,18.84,93,100,2.24,NZ,1698630620
276,katsuren-haebaru,26.3369,127.8719,27.43,57,0,5.14,JP,1698630620
277,lusambo,-4.9667,23.45,22.03,87,99,0.27,CD,1698631142
278,saint-pierre,-21.3393,55.4781,24.82,73,75,1.54,RE,1698631143
279,whakatane,-37.9585,176.9854,16.95,89,100,1.34,NZ,1698631143
280,ancud,-41.8697,-73.8203,6.98,85,100,10.18,CL,1698630620
281,mora,11.0461,14.1401,27.14,50,38,0.48,CM,1698631143
282,penzance,50.1186,-5.5371,14.87,85,70,10.77,GB,1698631143
283,comodoro rivadavia,-45.8667,-67.5,3.92,87,0,4.63,AR,1698630431
284,howrah,22.5892,88.3103,24.0,88,20,0.0,IN,1698630627
285,molde,62.7375,7.1591,-0.09,74,1,6.17,NO,1698631144
286,coquimbo,-29.9533,-71.3436,15.85,88,75,1.54,CL,1698631144
287,holualoa,19.6228,-155.9522,28.21,65,0,4.12,US,1698630654
288,plettenberg bay,-34.0527,23.3716,11.32,71,3,4.41,ZA,1698631144
289,kuta,-8.7233,115.1723,30.97,66,20,2.06,ID,1698631145
290,ritchie,-29.038,24.6028,12.1,55,97,8.87,ZA,1698631145
291,gbarnga,6.9956,-9.4722,21.63,90,33,0.27,LR,1698631145
292,nouadhibou,20.931,-17.0347,20.99,88,0,5.66,MR,1698631145
293,hohhot,40.8106,111.6522,9.16,40,0,2.0,CN,1698631065
294,nuuk,64.1835,-51.7216,3.05,72,100,7.32,GL,1698631146
295,vilyuysk,63.7553,121.6247,-10.5,88,89,2.19,RU,1698631146
296,boyolangu,-8.1181,111.8935,30.25,55,18,4.01,ID,1698631146
297,rawatsar,29.2833,74.3833,23.9,37,23,2.43,IN,1698631146
298,port augusta,-32.5,137.7667,24.54,24,100,4.87,AU,1698631146
299,boguchany,58.3814,97.4531,-7.86,79,11,1.34,RU,1698630664
300,soavinandriana,-19.1667,46.7333,15.84,81,53,1.26,MG,1698631147
301,ormara,25.2088,64.6357,26.47,74,5,1.93,PK,1698631147
302,mount isa,-20.7333,139.5,34.87,38,75,6.17,AU,1698630481
303,katima mulilo,-17.5,24.2667,22.46,64,100,1.81,NA,1698631147
304,nishinoomote,30.7333,131.0,22.31,52,40,3.6,JP,1698631147
305,puerto colombia,10.9878,-74.9547,26.05,78,98,3.55,CO,1698631147
306,fuglafjordur,62.244,-6.814,4.26,70,100,8.83,FO,1698631148
307,nadym,65.5333,72.5167,-13.2,90,13,1.5,RU,1698631148
308,fort bragg,35.139,-79.006,20.46,82,0,0.45,US,1698631148
309,san ignacio de velasco,-16.3667,-60.95,27.41,55,16,2.64,BO,1698631148
310,astrea,9.4983,-73.9759,24.39,88,100,1.19,CO,1698631148
311,akbarabad,29.2464,52.7793,11.79,56,99,0.42,IR,1698631148
312,santa rosalia,27.3167,-112.2833,21.57,70,2,4.99,MX,1698630611
313,vadso,70.0744,29.7487,-4.91,86,20,4.12,NO,1698630417
314,praya,14.9215,-23.5087,25.3,73,40,2.57,CV,1698631149
315,bo phloi,14.3236,99.5161,27.04,83,99,3.13,TH,1698631149
316,opuwo,-18.0607,13.84,20.78,16,4,2.88,NA,1698630653
317,mitu,1.1983,-70.1733,22.48,98,87,0.99,CO,1698631149
318,teploye,53.6202,37.5903,-1.39,93,98,2.34,RU,1698631150
319,chibougamau,49.9168,-74.3659,-1.21,74,100,2.57,CA,1698630360
320,gisborne,-38.6533,178.0042,13.51,97,100,9.61,NZ,1698631150
321,gobabis,-22.45,18.9667,16.87,20,0,4.75,NA,1698631151
322,haiku-pauwela,20.9219,-156.3051,28.43,65,20,6.69,US,1698630640
323,celestun,20.8667,-90.4,26.27,75,24,5.84,MX,1698631151
324,manakara,-22.1333,48.0167,21.81,95,10,2.13,MG,1698631151
325,lerwick,60.1545,-1.1494,8.0,65,12,13.08,GB,1698631151
326,kayangel,8.0823,134.7173,28.61,74,14,4.29,PW,1698631151
327,lighthouse point,26.2756,-80.0873,26.68,79,75,4.63,US,1698631152
328,gadzhiyevo,69.2551,33.3362,-6.78,94,100,3.34,RU,1698631152
329,prince rupert,54.3161,-130.3201,7.83,79,0,1.54,CA,1698631152
330,saipan,15.1355,145.701,31.39,74,20,5.66,MP,1698630626
331,sinabang,2.4803,96.3801,26.84,80,99,1.14,ID,1698630632
332,nizhnesortymskiy,62.4397,71.7603,-11.38,95,48,2.86,RU,1698630624
333,bairnsdale,-37.8333,147.6167,24.47,33,100,3.58,AU,1698630612
334,aripuana,-9.1667,-60.6333,30.06,38,62,0.89,BR,1698631153
335,la mitra,8.8422,-79.7867,26.77,86,100,0.45,PA,1698631153
336,atar,20.5169,-13.0499,27.3,16,0,1.56,MR,1698631153
337,fada n'gourma,12.0622,0.3578,28.88,28,1,1.45,BF,1698631153
338,chifeng,42.2683,118.9636,10.09,29,3,2.69,CN,1698631153
339,guerrero negro,27.9769,-114.0611,22.24,48,0,5.4,MX,1698630644
340,egilsstadir,65.2653,-14.3948,-0.05,100,75,2.06,IS,1698631154
341,ballina,-28.8667,153.5667,23.93,54,0,5.24,AU,1698631154
342,tolanaro,-25.0319,46.9987,23.04,88,75,1.03,MG,1698630645
343,bintulu,3.1667,113.0333,26.23,94,20,1.54,MY,1698631154
344,port lincoln,-34.7333,135.8667,16.37,54,45,9.32,AU,1698630617
345,pisco,-13.7,-76.2167,20.03,77,0,9.26,PE,1698630575
346,usogorsk,63.4106,48.6872,-3.52,83,100,2.17,RU,1698630644
347,ghanzi,-21.5667,21.7833,21.42,28,1,4.89,BW,1698631155
348,kaa-khem,51.6833,94.7333,-3.66,63,84,0.86,RU,1698631155
349,humberto de campos,-2.5983,-43.4611,24.53,88,44,2.09,BR,1698631155
350,naraina,26.7833,75.2,24.2,37,0,1.81,IN,1698631155
351,bharatpur,27.2167,77.4833,23.28,43,0,1.99,IN,1698631155
352,namibe,-15.1961,12.1522,19.32,86,5,2.11,AO,1698631156
353,mashava,-20.0367,30.4823,13.15,92,100,4.97,ZW,1698631156
354,colonia,50.9333,6.95,13.31,81,0,5.66,DE,1698630650
355,as sulayyil,20.4607,45.5779,26.14,32,86,4.03,SA,1698630644
356,mana,5.6592,-53.7767,26.77,86,24,5.38,GF,1698630651
357,fortuna,40.5982,-124.1573,16.19,61,0,0.0,US,1698631156
358,puerto leguizamo,-0.1934,-74.7819,22.68,85,100,0.24,CO,1698631157
359,dakoutun,39.5833,117.2289,20.36,50,0,2.42,CN,1698631157
360,negombo,7.2083,79.8358,24.03,94,20,1.03,LK,1698631157
361,kalmunai,7.4167,81.8167,26.41,79,67,1.69,LK,1698631157
362,zouerate,22.7187,-12.4521,27.37,15,100,2.79,MR,1698631157
363,inarajan village,13.2736,144.7484,31.54,91,36,4.32,GU,1698631158
364,lompoc,34.6391,-120.4579,17.61,51,0,3.09,US,1698630637
365,eagle point,42.4726,-122.8028,14.66,47,0,2.07,US,1698631158
366,port saint john's,-31.6229,29.5448,14.41,63,98,1.78,ZA,1698630650
367,kruisfontein,-34.0033,24.7314,8.61,81,14,1.68,ZA,1698630657
368,tsiombe,-25.3,45.4833,20.41,85,0,2.22,MG,1698630403
369,mugia,43.1041,-9.2179,13.98,60,93,10.28,ES,1698631159
370,wanning,18.8003,110.3967,26.57,82,55,6.33,CN,1698631159
371,ponta delgada,37.7333,-25.6667,15.1,77,20,2.68,PT,1698631159
372,mumford,5.2618,-0.759,25.98,86,4,1.7,GH,1698631159
373,tonekabon,36.8163,50.8738,17.97,87,32,2.42,IR,1698631159
374,oyama,36.3,139.8,19.21,43,0,0.43,JP,1698631160
375,melfort,52.8667,-104.6177,-2.93,80,76,3.09,CA,1698631160
376,inhambane,-23.865,35.3833,20.46,78,100,9.07,MZ,1698630664
377,mount gambier,-37.8333,140.7667,14.78,54,78,7.38,AU,1698630409
378,lesnoy,57.6198,63.0784,-4.56,93,100,5.49,RU,1698631160
379,tual,-5.6667,132.75,27.66,78,68,4.09,ID,1698630621
380,carnarvon,-24.8667,113.6333,22.42,58,0,9.81,AU,1698630625
381,ilovlya,49.3033,43.9796,6.08,79,44,3.98,RU,1698631161
382,seven pagodas,12.6264,80.1722,26.03,71,100,4.09,IN,1698630630
383,uzgen,40.7699,73.3007,13.16,37,18,2.31,KG,1698631161
384,peterhead,57.5058,-1.7981,5.25,74,99,7.18,GB,1698631161
385,sikonge,-5.6333,32.7667,19.52,78,28,1.72,TZ,1698631161
386,arraial do cabo,-22.9661,-42.0278,23.41,95,100,2.38,BR,1698630666
387,ola,59.5833,151.2833,-1.03,59,6,1.44,RU,1698630631
388,ndele,8.4109,20.6473,21.98,83,20,1.19,CF,1698631162
389,superior,46.7208,-92.1041,-0.58,77,100,6.17,US,1698631162
390,rongelap,11.1635,166.8941,28.62,74,15,8.56,MH,1698630659
391,nemuro,43.3236,145.575,10.14,67,9,3.39,JP,1698630630
392,ankazoabo,-22.2833,44.5167,19.33,82,0,2.33,MG,1698630919
393,fenoarivo be,-18.4333,46.5667,19.85,77,86,1.02,MG,1698631163
394,kiunga,-6.1219,141.2906,26.79,81,100,1.26,PG,1698631163
395,nuku'alofa,-21.1333,-175.2,28.19,74,20,8.23,TO,1698630451
396,alexandria,31.2156,29.9553,22.3,72,100,5.25,EG,1698631163
397,ariano irpino-martiri,41.1489,15.0833,14.19,63,0,1.61,IT,1698631163
398,sankt georgen im schwarzwald,48.1333,8.3333,9.98,81,54,1.64,DE,1698631164
399,kirakira,-10.4544,161.9205,28.92,76,85,4.36,SB,1698631164
400,nykarleby,63.5228,22.5307,-1.92,97,97,1.55,FI,1698631164
401,kikwit,-5.041,18.8162,22.31,91,84,0.64,CD,1698630641
402,sao jose da coroa grande,-8.8978,-35.1478,24.98,70,95,4.36,BR,1698630626
403,alajarvi,63.0,23.8167,-5.67,87,84,1.21,FI,1698631165
404,brokopondo,4.75,-55.1667,27.86,71,66,4.69,SR,1698631165
405,boda,4.3189,17.4695,21.57,95,98,0.95,CF,1698631165
406,karasburg,-28.0167,18.75,11.49,24,0,7.87,NA,1698631165
407,labrador city,52.9463,-66.9114,-3.05,74,75,4.63,CA,1698630662
408,viru,-8.4167,-78.75,20.9,80,100,1.75,PE,1698631165
409,yanchep,-31.55,115.6833,19.41,42,8,3.93,AU,1698631166
410,brownwood,31.7093,-98.9912,4.0,88,100,7.2,US,1698630952
411,rio grande,-32.035,-52.0986,19.97,94,0,2.45,BR,1698631166
412,island harbour,50.724,-1.2758,14.4,79,10,2.24,GB,1698631166
413,fonseca,10.8861,-72.8487,23.2,94,95,0.65,CO,1698631166
414,ust'-ilimsk,58.0006,102.6619,-6.42,68,87,3.13,RU,1698631167
415,lobujya,27.95,86.8167,-7.54,69,22,0.67,NP,1698631167
416,suntar,62.1444,117.6319,-6.3,83,100,2.82,RU,1698630657
417,karbala,32.616,44.0249,25.04,31,100,0.37,IQ,1698631167
418,dangriga,16.9692,-88.2321,26.38,73,10,2.74,BZ,1698631167
419,petropavlovka,50.6114,105.3196,-2.53,40,100,0.76,RU,1698631167
420,loiza,18.4313,-65.8802,27.26,88,100,2.77,PR,1698631168
421,malango,-2.9627,119.9001,29.49,46,9,1.76,ID,1698631168
422,ibate,-21.9547,-47.9967,21.49,87,98,1.61,BR,1698631168
423,andkhoy,36.9529,65.1238,17.62,38,14,0.77,AF,1698631168
424,minden,52.2833,8.9167,13.12,75,100,7.2,DE,1698631168
425,tommot,58.9564,126.2925,-6.54,91,100,1.08,RU,1698631168
426,fisterra,42.9049,-9.2629,13.9,58,86,10.48,ES,1698630661
427,christchurch,-43.5333,172.6333,18.08,72,75,9.26,NZ,1698631110
428,pionerskiy,54.9508,20.2275,11.91,89,100,13.02,RU,1698631169
429,san luis de la loma,17.2706,-100.8939,26.32,85,30,1.96,MX,1698630629
430,itapirapua,-15.8233,-50.6133,30.64,38,59,0.54,BR,1698631169
431,el rama,12.1596,-84.2195,23.59,98,100,1.03,NI,1698631169
432,nantucket,41.2835,-70.0995,11.08,85,100,6.17,US,1698631170
433,grafton,42.207,-71.6856,8.42,96,100,4.12,US,1698631170
434,coahuayana de hidalgo,18.7,-103.6583,25.94,91,68,1.31,MX,1698631170
435,yaren,-0.5472,166.916,28.49,69,8,2.47,NR,1698630647
436,alo,7.4178,6.7371,25.57,87,100,1.63,NG,1698631170
437,dhuusamarreeb,5.535,46.3861,23.23,89,100,3.06,SO,1698631171
438,laojunmiao,39.8333,97.7333,11.56,21,90,1.73,CN,1698630662
439,puerto ayacucho,5.6639,-67.6236,23.88,95,100,0.96,VE,1698631171
440,yigo village,13.5361,144.8886,30.62,74,75,7.2,GU,1698631171
441,la sarre,48.8002,-79.1996,-0.93,72,100,1.85,CA,1698631171
442,sept-iles,50.2001,-66.3821,1.7,67,20,6.17,CA,1698631172
443,sidi okba,34.7451,5.8983,27.16,26,40,5.14,DZ,1698631172
444,cromer,52.9312,1.2989,10.04,87,7,7.09,GB,1698630641
445,sergeyevka,53.88,67.4158,3.23,100,100,3.23,KZ,1698630494
446,arkhangel'sk,64.5401,40.5433,-4.37,81,80,2.6,RU,1698631172
447,muzaffarabad,34.37,73.4711,16.96,46,0,2.3,PK,1698631172
448,ob',54.9872,82.7166,-9.01,92,0,2.0,RU,1698631173
449,aglona,56.1333,27.0167,3.91,99,100,4.08,LV,1698631173
450,berezovyy,51.6667,135.7,3.39,55,100,1.18,RU,1698631173
451,jonesboro,35.8423,-90.7043,8.9,100,100,4.63,US,1698631173
452,kadnikov,59.5022,40.338,-3.47,97,32,1.69,RU,1698631174
453,torres,-29.3353,-49.7269,23.79,91,72,2.4,BR,1698631174
454,mazagao,-0.115,-51.2894,28.03,78,6,2.6,BR,1698631174
455,columbia falls,48.3725,-114.1815,-2.83,76,0,0.0,US,1698631174
456,sisimiut,66.9395,-53.6735,-2.28,75,100,4.63,GL,1698631174
457,necochea,-38.5473,-58.7368,14.89,40,100,6.54,AR,1698630651
458,hecun,36.5333,114.1111,22.19,24,0,0.96,CN,1698631175
459,khandyga,62.6667,135.6,-5.56,93,100,1.77,RU,1698630637
460,zorritos,-3.6805,-80.6782,25.16,77,100,2.19,PE,1698631175
461,new norfolk,-42.7826,147.0587,18.72,45,70,4.96,AU,1698630659
462,laibin,23.7,109.2667,22.76,73,100,3.03,CN,1698630632
463,paka,4.6374,103.4368,27.96,83,20,1.03,MY,1698631175
464,bisceglie,41.242,16.5044,18.44,73,1,2.68,IT,1698631176
465,nogliki,51.8333,143.1667,2.97,60,1,3.58,RU,1698631176
466,miquelon,47.0975,-56.3814,6.0,56,83,13.79,PM,1698631176
467,cedar city,37.6775,-113.0619,1.54,37,0,5.14,US,1698631176
468,suez,29.9737,32.5263,22.54,82,6,2.98,EG,1698631176
469,chervona sloboda,49.3789,32.1464,11.53,68,100,4.94,UA,1698631177
470,leninskoye,41.7589,69.3864,16.25,42,21,1.57,KZ,1698631177
471,padang,-0.9492,100.3543,27.03,75,99,0.93,ID,1698631177
472,urangan,-25.3,152.9,22.04,57,0,3.06,AU,1698630635
473,wewak,-3.5534,143.6268,27.07,83,99,1.63,PG,1698631177
474,starachowice,51.0374,21.0713,11.48,78,42,3.5,PL,1698630810
475,grand island,40.925,-98.342,-1.1,74,0,3.6,US,1698631178
476,nahiyat al fuhud,30.9697,46.7228,23.24,42,84,0.64,IQ,1698631178
477,usinsk,65.9939,57.5281,-11.63,87,100,2.68,RU,1698630651
478,lazaro cardenas,17.9583,-102.2,26.88,82,55,2.19,MX,1698631178
479,santa terezinha,-29.9002,-50.0904,20.62,90,92,2.93,BR,1698631178
480,pitimbu,-7.4706,-34.8086,24.33,73,91,5.04,BR,1698631178
481,el jadid,33.2549,-8.506,19.92,85,97,8.71,MA,1698631179
482,charters towers,-20.1,146.2667,30.84,22,54,5.32,AU,1698631179
483,zaozersk,69.4005,32.4476,-7.26,95,100,2.63,RU,1698630639
484,palencia,42.4167,-4.5,10.51,91,100,7.06,ES,1698631179
485,remire-montjoly,4.9167,-52.2667,27.02,89,20,1.03,GF,1698630629
486,canutama,-6.5339,-64.3831,29.77,54,97,2.4,BR,1698631179
487,carnot,4.9409,15.8665,21.22,93,18,1.08,CF,1698631180
488,mwene-ditu,-7.0,23.45,19.88,86,30,0.2,CD,1698631180
489,howard springs,-12.497,131.047,34.34,67,59,2.34,AU,1698631180
490,lembeni,-3.7833,37.6167,20.12,81,56,1.54,TZ,1698631180
491,touros,-5.1989,-35.4608,24.72,82,20,6.04,BR,1698630582
492,manistee,44.2445,-86.3242,4.01,85,100,2.57,US,1698631180
493,yinchuan,38.4681,106.2731,15.29,23,2,2.93,CN,1698631181
494,east ballina,-28.8667,153.5833,23.65,55,0,5.48,AU,1698631181
495,glace bay,46.1969,-59.957,5.44,77,20,4.63,CA,1698631181
496,cuatro cienegas de carranza,26.9833,-102.0833,23.94,74,3,4.75,MX,1698631181
497,rusape,-18.5278,32.1284,14.37,89,99,5.79,ZW,1698631181
498,mednogorsk,51.4128,57.595,2.59,90,100,8.72,RU,1698631181
499,soe,-9.8607,124.284,30.9,26,68,3.32,ID,1698631182
500,iwaki,37.05,140.8833,21.18,54,4,1.79,JP,1698631182
501,qujing,25.4833,103.7833,15.82,74,59,0.93,CN,1698631182
502,bonny,4.4522,7.1681,25.4,86,99,2.85,NG,1698631182
503,aioun,16.6614,-9.6149,31.59,22,55,1.76,MR,1698631182
504,sambava,-14.2667,50.1667,22.56,90,30,3.21,MG,1698631183
505,novo cruzeiro,-17.4681,-41.8753,19.48,72,17,1.11,BR,1698631183
506,cole harbour,44.6724,-63.4751,6.65,72,93,2.24,CA,1698631183
507,destin,30.3935,-86.4958,24.0,83,0,1.54,US,1698631115
508,parabel',58.6978,81.4825,-9.49,94,23,1.34,RU,1698631183
509,sayat,38.7839,63.8803,13.93,43,13,2.91,TM,1698631184
510,ghat,24.9647,10.1728,24.33,22,2,2.32,LY,1698630425
511,muisne,0.6,-80.0333,24.92,87,100,2.87,EC,1698631184
512,tionk essil,12.7856,-16.5217,26.03,80,100,2.15,SN,1698631184
513,mirnyy,62.5353,113.9611,-8.81,91,100,2.7,RU,1698631184
514,punta alta,-38.8759,-62.0736,10.04,83,100,9.46,AR,1698631184
515,bull savanna,17.8868,-77.5902,25.16,75,14,0.94,JM,1698631185
516,road town,18.4167,-64.6167,27.05,89,75,3.6,VG,1698631179
517,mezhdurechensk,53.6942,88.0603,-4.41,77,100,0.93,RU,1698631185
518,shunyi,40.125,116.6453,17.97,63,0,4.0,CN,1698631185
519,melo,-32.3667,-54.1833,19.54,88,14,1.64,UY,1698631185
520,huayin,34.5675,110.0921,22.34,32,2,0.59,CN,1698631185
521,itaituba,-4.2761,-55.9836,28.49,54,16,0.63,BR,1698630907
522,cestos city,5.46,-9.5828,26.21,83,3,1.65,LR,1698631186
523,lospalos,-8.5186,127.0025,29.45,52,100,4.68,TL,1698631186
524,port shepstone,-30.7414,30.455,15.26,58,100,6.33,ZA,1698631186
525,eynesil,41.0645,39.1438,18.63,73,100,1.73,TR,1698631186
526,celinac,44.7228,17.3278,10.37,72,3,2.84,BA,1698631186
527,chipinge,-20.1883,32.6236,14.05,93,100,2.61,ZW,1698631187
528,acajutla,13.5928,-89.8275,25.95,85,100,5.39,SV,1698631187
529,polyarnyy,69.1989,33.4478,-6.39,93,100,3.32,RU,1698631187
530,laguna,38.421,-121.4238,20.05,32,0,2.57,US,1698630332
531,bardai,11.65,7.2333,23.65,23,80,3.06,NG,1698631187
532,okhotsk,59.3833,143.3,-2.55,73,18,3.14,RU,1698630630
533,abepura,-2.6333,140.5833,25.45,89,20,1.54,ID,1698631188
534,ribeira brava,32.65,-17.0667,20.95,74,100,1.1,PT,1698631188
535,dabola,10.75,-11.1167,22.48,81,4,1.08,GN,1698631188
536,luganville,-15.5333,167.1667,27.14,73,74,3.85,VU,1698631188
537,lensk,60.7253,114.9278,-5.22,63,100,4.23,RU,1698630663
538,toliara,-23.35,43.6667,22.89,74,80,2.26,MG,1698631189
539,tera,14.0078,0.7531,29.43,20,0,2.72,NE,1698631189
540,saint-denis,48.9167,2.3333,12.45,87,75,5.14,FR,1698631189
541,thunder bay,48.4001,-89.3168,-1.01,59,100,3.6,CA,1698631189
542,sola,-13.8833,167.55,26.34,80,45,7.16,VU,1698630669
543,nelson bay,-32.7167,152.15,30.03,55,2,7.15,AU,1698631190
544,bonthe,7.5264,-12.505,25.82,84,34,1.97,SL,1698630612
545,hailey,43.5196,-114.3153,-1.08,64,0,3.6,US,1698630637
546,tabou,4.423,-7.3528,25.16,89,0,1.6,CI,1698630667
547,pacific grove,36.6177,-121.9166,19.21,61,0,2.24,US,1698630361
548,saldanha,-33.0117,17.9442,14.02,54,0,7.42,ZA,1698630914
549,dul'durga,50.6761,113.5931,-5.04,34,100,1.44,RU,1698631191
550,margate,51.3813,1.3862,14.39,85,2,0.89,GB,1698630649
551,humboldt,40.6665,-123.9178,8.81,45,1,1.31,US,1698631191
552,revelstoke,50.9832,-118.2023,1.01,75,0,0.0,CA,1698631191
553,neiafu,-18.65,-173.9833,28.38,78,75,5.14,TO,1698631191
554,petauke,-14.2426,31.3253,23.63,55,100,4.75,ZM,1698631191
