City_ID,City,Lat,Lng,Max Temp,Humidity,Cloudiness,Wind Speed,Country,Date
0,beyneu,45.3167,55.2,18.62,53,100,2.7,KZ,1698516727
1,port elizabeth,-33.918,25.5701,11.84,89,91,0.89,ZA,1698516453
2,chibougamau,49.9168,-74.3659,0.79,86,75,6.69,CA,1698516197
3,port-aux-francais,-49.35,70.2167,5.14,98,100,8.2,TF,1698516728
4,badger,64.8,-147.5333,-6.22,86,0,1.54,US,1698516728
5,touros,-5.1989,-35.4608,28.38,65,18,8.6,BR,1698516481
6,yuzhno-kurilsk,44.0306,145.8556,11.32,87,87,2.9,RU,1698516729
7,waitangi,-43.9535,-176.5597,9.9,85,38,3.13,NZ,1698516729
8,nasir,15.5894,32.5634,33.61,30,88,4.5,SD,1698516729
9,margaret river,-33.95,115.0667,14.64,80,93,5.74,AU,1698516729
10,rawson,-43.3002,-65.1023,22.23,26,99,18.8,AR,1698516727
11,svetlyy,54.675,20.1347,4.09,78,100,1.33,RU,1698516730
12,namibe,-15.1961,12.1522,20.87,80,43,2.08,AO,1698516731
13,grytviken,-54.2811,-36.5092,-0.58,97,100,1.64,GS,1698516731
14,bhimunipatnam,17.8833,83.4333,25.52,75,65,1.4,IN,1698516731
15,edinburgh of the seven seas,-37.0676,-12.3116,14.17,91,100,8.03,SH,1698516732
16,tanumah,27.1,44.1333,23.98,42,53,4.83,SA,1698516732
17,selfoss,63.9331,-20.9971,4.47,70,99,3.13,IS,1698516733
18,kushiro,42.975,144.3747,10.14,90,98,3.42,JP,1698516733
19,barcelos,41.5388,-8.6151,19.08,90,100,9.22,PT,1698516733
20,hadibu,12.65,54.0333,26.2,77,88,3.64,YE,1698516733
21,puerto natales,-51.7236,-72.4875,4.25,81,100,7.2,CL,1698516734
22,mangai,-4.05,19.5333,25.46,74,90,0.89,CD,1698516734
23,uturoa,-16.7333,-151.4333,26.0,79,96,5.69,PF,1698516734
24,vilyuchinsk,52.9306,158.4028,3.85,74,100,1.76,RU,1698516734
25,blackmans bay,-43.0167,147.3167,9.07,76,66,0.45,AU,1698516735
26,hamilton,39.1834,-84.5333,15.96,92,100,4.63,US,1698516735
27,coquimbo,-29.9533,-71.3436,16.63,67,11,3.63,CL,1698516735
28,tiksi,71.6872,128.8694,-11.1,91,100,3.02,RU,1698516736
29,thompson,55.7435,-97.8558,-3.91,100,100,2.06,CA,1698516736
30,adamstown,-25.066,-130.1015,22.65,81,94,5.78,PN,1698516736
31,kalabo,-14.97,22.6814,28.55,30,91,2.04,ZM,1698516737
32,flying fish cove,-10.4217,105.6791,24.82,88,75,4.63,CX,1698516737
33,avarua,-21.2078,-159.775,23.03,64,40,3.6,CK,1698516738
34,invercargill,-46.4,168.35,5.01,95,50,0.89,NZ,1698516738
35,copala,16.65,-98.9833,29.38,70,100,2.82,MX,1698516738
36,lensk,60.7253,114.9278,-3.35,59,100,4.2,RU,1698516738
37,urangan,-25.3,152.9,20.02,61,2,7.61,AU,1698516739
38,kaynarca,41.0308,30.3075,15.1,67,3,1.46,TR,1698516739
39,privolzhsk,57.3808,41.2886,-2.16,95,100,5.19,RU,1698516739
40,aasiaat,68.7098,-52.8699,-8.04,93,79,4.98,GL,1698516739
41,yellowknife,62.456,-114.3525,0.79,94,40,6.17,CA,1698516471
42,afaahiti,-17.75,-149.2833,25.93,78,100,2.29,PF,1698516740
43,uliastay,47.7417,96.8444,-2.15,43,18,0.56,MN,1698516740
44,stanley,54.868,-1.6985,9.01,93,75,2.06,GB,1698516740
45,puerto ayora,-0.7393,-90.3518,27.98,85,99,4.02,EC,1698516740
46,iqaluit,63.7506,-68.5145,-10.15,78,20,4.12,CA,1698516741
47,kodiak,57.79,-152.4072,7.73,93,100,4.12,US,1698516741
48,port alfred,-33.5906,26.891,11.77,94,88,2.24,ZA,1698516741
49,wanning,18.8003,110.3967,25.45,90,75,2.03,CN,1698516741
50,arraial do cabo,-22.9661,-42.0278,24.92,83,75,8.75,BR,1698516741
51,ushuaia,-54.8,-68.3,5.81,49,0,3.6,AR,1698516548
52,coahuayana de hidalgo,18.7,-103.6583,31.22,64,98,1.76,MX,1698516742
53,sitka,57.0531,-135.33,6.94,76,100,1.54,US,1698516742
54,america dourada,-11.4553,-41.4361,35.68,21,15,6.27,BR,1698516742
55,rosarito,32.3333,-117.0333,21.8,62,0,2.43,MX,1698516743
56,iskateley,67.6803,53.1512,-12.21,90,88,3.58,RU,1698516743
57,kasterlee,51.2426,4.9699,13.26,88,63,6.53,BE,1698516743
58,griffith,41.5284,-87.4237,11.16,68,100,5.66,US,1698516743
59,wailua homesteads,22.0669,-159.378,24.24,84,0,3.6,US,1698516743
60,beau vallon,-20.4189,57.6953,24.01,94,20,0.0,MU,1698516744
61,opuwo,-18.0607,13.84,28.08,20,69,5.45,NA,1698516744
62,ola,59.5833,151.2833,-2.04,70,92,2.98,RU,1698516744
63,thames,-37.1333,175.5333,11.79,67,100,6.01,NZ,1698516744
64,prado,-17.3411,-39.2208,27.57,71,54,6.2,BR,1698516745
65,lakatoro,-16.0999,167.4164,23.9,81,72,2.48,VU,1698516745
66,grand falls-windsor,48.9332,-55.6649,13.61,96,100,0.45,CA,1698516745
67,erdenet,49.0333,104.0833,-4.51,84,100,2.32,MN,1698516745
68,minot air force base,48.4209,-101.3391,-5.01,77,20,8.23,US,1698516717
69,albany,42.6001,-73.9662,23.3,71,49,5.29,US,1698516552
70,shiguai,40.7058,110.2856,8.46,39,7,0.97,CN,1698516746
71,nova sintra,14.8667,-24.7167,24.19,76,43,6.96,CV,1698516746
72,san patricio,28.017,-97.5169,32.97,55,11,6.06,US,1698516746
73,west island,-12.1568,96.8225,25.99,73,100,9.26,CC,1698516747
74,niksic,42.7731,18.9445,10.92,91,33,1.35,ME,1698516747
75,cidreira,-30.1811,-50.2056,23.63,74,100,7.52,BR,1698516747
76,mossel bay,-34.1831,22.146,12.96,60,72,7.27,ZA,1698516747
77,tripoli,32.8752,13.1875,24.59,66,14,4.73,LY,1698516747
78,bilibino,68.0546,166.4372,-22.16,98,58,0.9,RU,1698516748
79,hermanus,-34.4187,19.2345,13.76,68,53,7.63,ZA,1698516748
80,tunceli,39.1083,39.5471,16.5,56,14,1.14,TR,1698516748
81,nar'yan-mar,67.6713,53.087,-12.16,90,89,3.58,RU,1698516748
82,mo i rana,66.3128,14.1428,-1.74,100,100,1.03,NO,1698516749
83,katsuren-haebaru,26.3369,127.8719,21.01,82,0,2.06,JP,1698516749
84,anadyr,64.75,177.4833,1.28,100,100,5.0,RU,1698516749
85,bethel,41.3712,-73.414,27.57,58,75,4.63,US,1698516631
86,lebu,-37.6167,-73.65,11.85,88,100,9.84,CL,1698516641
87,ancud,-41.8697,-73.8203,8.72,75,86,12.24,CL,1698516655
88,conde,-7.2597,-34.9075,28.7,58,40,7.72,BR,1698516750
89,mwaya,-9.55,33.95,28.43,53,77,1.15,TZ,1698516750
90,vernon,50.2581,-119.2691,4.23,55,2,0.45,CA,1698516625
91,olonkinbyen,70.9221,-8.7187,-0.87,74,98,3.14,SJ,1698516750
92,papatowai,-46.5619,169.4708,4.92,90,34,2.63,NZ,1698516750
93,kirakira,-10.4544,161.9205,25.55,85,78,2.75,SB,1698516751
94,kupang,-10.1667,123.5833,25.38,85,43,2.18,ID,1698516751
95,yeed,4.55,43.0333,24.52,84,100,2.52,SO,1698516751
96,tralee,52.2704,-9.7026,10.1,89,90,2.15,IE,1698516751
97,ribeira grande,38.5167,-28.7,18.76,63,40,6.69,PT,1698516752
98,puerto baquerizo moreno,-0.9,-89.6,27.55,69,75,7.2,EC,1698516752
99,benguela,-12.5763,13.4055,27.76,65,58,3.99,AO,1698516752
100,st. john's,47.5649,-52.7093,14.75,97,100,6.69,CA,1698516479
101,howrah,22.5892,88.3103,25.0,78,20,0.0,IN,1698516753
102,mount gambier,-37.8333,140.7667,4.46,96,96,1.86,AU,1698516753
103,puerto montt,-41.4698,-72.9447,12.46,54,75,7.72,CL,1698516753
104,nemuro,43.3236,145.575,12.05,73,58,1.73,JP,1698516753
105,dhidhdhoo,6.8833,73.1,28.21,75,100,2.39,MV,1698516753
106,la passe,45.5549,-0.8967,17.23,67,100,11.14,FR,1698516754
107,bardai,11.65,7.2333,25.82,26,9,0.83,NG,1698516754
108,richards bay,-28.783,32.0377,19.56,90,100,5.96,ZA,1698516754
109,enewetak,11.3474,162.3373,27.95,76,48,3.54,MH,1698516754
110,kostomuksha,64.571,30.5767,-4.98,95,57,1.34,RU,1698516754
111,georgetown,5.4112,100.3354,27.19,94,20,1.54,MY,1698516660
112,ikovka,55.6089,64.9375,-2.66,87,100,3.34,RU,1698516755
113,upper grand lagoon,30.1633,-85.7408,29.45,55,40,2.57,US,1698516755
114,joacaba,-27.1781,-51.5047,17.55,99,100,1.81,BR,1698516755
115,susangerd,31.5608,48.1831,26.67,25,80,3.1,IR,1698516755
116,hanzhong,33.0728,107.0303,14.52,82,29,0.57,CN,1698516756
117,chinde,26.8418,88.0763,14.29,77,55,1.79,NP,1698516756
118,bubaque,11.2833,-15.8333,27.81,76,57,4.01,GW,1698516756
119,bredasdorp,-34.5322,20.0403,13.53,56,85,5.6,ZA,1698516756
120,oranjemund,-28.55,16.4333,15.2,76,0,12.35,NA,1698516756
121,bojonegoro,-7.1502,111.8817,25.75,69,40,2.42,ID,1698516632
122,isafjordur,66.0755,-23.124,2.66,87,100,2.32,IS,1698516757
123,pont rouge,48.8833,-72.0825,7.16,64,89,6.95,CA,1698516757
124,hetauda,27.4284,85.0322,20.64,75,96,1.83,NP,1698516757
125,rezh,57.37,61.4043,-4.47,85,100,3.41,RU,1698516757
126,punta arenas,-53.15,-70.9167,6.73,42,100,1.28,CL,1698516645
127,baruun-urt,46.6806,113.2792,6.4,40,95,3.35,MN,1698516758
128,pangody,65.85,74.4859,-9.26,95,95,3.98,RU,1698516758
129,jinhua,29.1078,119.6547,16.44,88,35,1.26,CN,1698516758
130,usinsk,65.9939,57.5281,-12.18,91,33,1.34,RU,1698516758
131,kailua-kona,19.6406,-155.9956,28.06,72,0,2.06,US,1698516758
132,winslow,35.0242,-110.6974,21.1,30,20,6.69,US,1698516494
133,caldwell,43.6629,-116.6874,5.64,49,0,6.17,US,1698516759
134,kingston,17.997,-76.7936,30.69,65,25,0.6,JM,1698516746
135,new norfolk,-42.7826,147.0587,9.72,76,79,1.48,AU,1698516759
136,tadine,-21.55,167.8833,21.72,86,1,5.13,NC,1698516759
137,polohy,47.4844,36.2536,14.45,53,0,7.72,UA,1698516760
138,quesnel,52.9999,-122.5029,-5.72,73,0,1.03,CA,1698516760
139,ulan bator,47.9077,106.8832,-0.93,69,40,4.0,MN,1698516760
140,'ain boucif,35.8912,3.1585,17.77,51,99,1.36,DZ,1698516760
141,rio grande,-32.035,-52.0986,28.06,88,92,2.39,BR,1698516524
142,pisco,-13.7,-76.2167,22.03,73,20,5.14,PE,1698516676
143,virar,19.4667,72.8,29.05,50,4,2.24,IN,1698516761
144,ciudad lazaro cardenas,17.9583,-102.2,29.5,67,98,1.18,MX,1698516761
145,alta,69.9689,23.2717,-6.41,82,34,3.6,NO,1698516761
146,uniao,-4.5858,-42.8642,42.62,14,22,2.99,BR,1698516761
147,puerto san jose,13.9256,-90.8244,29.36,70,59,5.37,GT,1698516762
148,visby,57.6409,18.296,3.23,70,100,2.57,SE,1698516762
149,port mathurin,-19.6833,63.4167,24.58,79,6,3.79,MU,1698516762
150,horta,38.5333,-28.6333,18.34,69,40,6.69,PT,1698516762
151,kapa'a,22.0752,-159.319,24.99,83,0,3.6,US,1698516762
152,caucete,-31.6518,-68.2811,35.57,5,1,5.1,AR,1698516762
153,sao jose da laje,-9.0097,-36.0583,29.93,45,100,6.96,BR,1698516763
154,saipan,15.1355,145.701,27.39,94,20,2.06,MP,1698516763
155,ulladulla,-35.35,150.4667,5.43,76,50,2.74,AU,1698516763
156,dunedin,-45.8742,170.5036,8.22,72,52,1.77,NZ,1698516763
157,remire-montjoly,4.9167,-52.2667,33.02,58,0,6.69,GF,1698516763
158,tsiombe,-25.3,45.4833,23.83,81,0,2.36,MG,1698516764
159,constitucion,-35.3333,-72.4167,12.11,96,100,11.07,CL,1698516764
160,vorgashor,67.5833,63.95,-14.38,99,98,1.37,RU,1698516764
161,port sudan,19.6175,37.2164,29.76,69,20,3.79,SD,1698516764
162,nuuk,64.1835,-51.7216,-1.66,69,20,3.6,GL,1698516764
163,jamestown,42.097,-79.2353,13.9,81,100,4.63,US,1698516475
164,puerto barrios,15.7167,-88.6,28.08,78,40,4.12,GT,1698516765
165,nay pyi taw,19.745,96.1297,23.14,94,100,1.0,MM,1698516765
166,dalandzadgad,43.5708,104.425,6.01,43,54,4.68,MN,1698516765
167,utrik,11.2278,169.8474,28.31,76,89,7.91,MH,1698516765
168,meadow lakes,61.6247,-149.6011,1.46,74,0,1.54,US,1698516765
169,belyy yar,53.6039,91.3903,-5.06,74,0,2.0,RU,1698516766
170,praia,14.9215,-23.5087,29.3,65,20,7.72,CV,1698516766
171,tura,25.5198,90.2201,19.28,78,0,1.68,IN,1698516766
172,taulaga,-11.0553,-171.0883,27.92,77,34,4.27,AS,1698516766
173,nikolayevsk-on-amure,53.1406,140.73,-2.14,83,63,2.16,RU,1698516766
174,kerikeri,-35.2268,173.9474,12.73,90,100,1.34,NZ,1698516766
175,aldama,22.9167,-98.0667,29.09,62,29,2.58,MX,1698516555
176,broome,42.2506,-75.833,17.32,83,75,5.66,US,1698516767
177,colonia,50.9333,6.95,13.31,82,75,4.12,DE,1698516767
178,stornoway,58.2093,-6.3865,10.98,84,75,7.2,GB,1698516767
179,khandyga,62.6667,135.6,-14.83,93,95,1.52,RU,1698516767
180,laguna,38.421,-121.4238,17.23,60,0,5.14,US,1698516768
181,sinabang,2.4803,96.3801,25.76,88,95,1.17,ID,1698516768
182,andalgala,-27.5819,-66.3165,28.29,16,0,3.18,AR,1698516768
183,broken hill,-31.95,141.4333,18.37,18,38,3.85,AU,1698516768
184,tazovsky,67.4667,78.7,-13.94,91,93,4.97,RU,1698516768
185,klyuchi,52.2667,79.1667,-1.95,55,100,3.54,RU,1698516769
186,strezhevoy,60.7333,77.5889,-10.58,92,25,2.24,RU,1698516769
187,turkmenbasy,40.0222,52.9552,18.25,81,63,1.35,TM,1698516769
188,mahanoro,-19.9,48.8,23.75,90,9,2.26,MG,1698516769
189,mobaye,4.319,21.1786,22.91,88,50,0.53,CF,1698516769
190,hithadhoo,-0.6,73.0833,27.15,83,67,8.5,MV,1698516770
191,itaituba,-4.2761,-55.9836,41.32,19,12,2.16,BR,1698516770
192,ust-nera,64.5667,143.2,-17.81,99,98,1.31,RU,1698516770
193,milicz,51.5277,17.2714,11.03,85,94,2.9,PL,1698516770
194,hawaiian paradise park,19.5933,-154.9731,25.5,84,0,1.54,US,1698516771
195,kavaratti,10.5669,72.642,28.73,69,76,0.6,IN,1698516771
196,quimili,-27.6333,-62.4167,34.66,33,18,2.63,AR,1698516771
197,lata,40.1629,-8.3327,16.71,89,92,5.24,PT,1698516771
198,santiago de chuco,-8.15,-78.1833,13.21,83,100,2.86,PE,1698516771
199,zheleznodorozhnyy,55.7503,38.0042,0.34,96,100,4.47,RU,1698516771
200,mitu,1.1983,-70.1733,33.01,52,100,1.32,CO,1698516772
201,hun,29.1268,15.9477,26.19,19,62,2.93,LY,1698516563
202,corner brook,48.9667,-57.9484,11.09,95,100,3.25,CA,1698516772
203,sandy,40.572,-111.8606,7.59,55,0,5.66,US,1698516772
204,mungwi,-10.1732,31.3694,22.69,50,76,1.7,ZM,1698516772
205,carnarvon,-24.8667,113.6333,19.79,69,4,10.64,AU,1698516773
206,huambo,-12.7761,15.7392,18.02,80,99,3.66,AO,1698516773
207,kruisfontein,-34.0033,24.7314,11.93,67,99,6.86,ZA,1698516773
208,kandi,11.1342,2.9386,30.95,34,11,1.67,BJ,1698516773
209,ha'il,27.5219,41.6907,22.01,68,75,2.06,SA,1698516773
210,college,64.8569,-147.8028,-6.17,78,75,1.54,US,1698516738
211,hutchinson island south,27.2995,-80.2205,29.47,63,40,7.2,US,1698516774
212,lompoc,34.6391,-120.4579,23.77,63,0,8.75,US,1698516774
213,amos,48.5669,-78.1162,0.61,66,100,5.16,CA,1698516687
214,udachny,66.4167,112.4,-17.9,97,71,3.7,RU,1698516774
215,waajid,3.8096,43.2463,26.52,71,100,3.6,SO,1698516774
216,ciudad de armeria,18.9333,-103.9667,31.43,60,78,1.79,MX,1698516775
217,hakkari,37.5833,44.1667,8.88,81,20,1.03,TR,1698516775
218,alesund,62.4723,6.1549,4.86,72,0,4.63,NO,1698516775
219,ain beida,35.7964,7.3928,19.46,37,97,1.46,DZ,1698516775
220,san bernardo del viento,9.3533,-75.9524,26.13,85,100,5.3,CO,1698516775
221,tuy hoa,13.0833,109.3,24.94,92,84,1.59,VN,1698516776
222,nadi,-17.8,177.4167,23.0,88,20,1.03,FJ,1698516776
223,beloyarskiy,63.7119,66.6722,-11.11,94,19,1.34,RU,1698516776
224,buka,40.8108,69.1986,21.12,36,100,1.13,UZ,1698516776
225,mount pearl,47.5166,-52.7813,14.29,96,75,7.2,CA,1698516776
226,callao,-12.0667,-77.15,25.16,57,0,6.69,PE,1698516777
227,dolinsk,47.35,142.8,-0.71,79,1,1.61,RU,1698516777
228,puente alto,-33.6167,-70.5833,16.66,57,100,2.49,CL,1698516529
229,oriximina,-1.7656,-55.8661,38.18,26,51,4.34,BR,1698516777
230,barra do corda,-5.5,-45.25,40.85,20,52,3.51,BR,1698516777
231,senanga,-16.1167,23.2667,28.13,31,60,1.64,ZM,1698516778
232,marquette,46.5333,-87.6335,5.46,68,93,4.02,US,1698516778
233,maridi,4.9158,29.4742,20.84,97,98,1.95,SS,1698516778
234,sao vicente,-23.9631,-46.3919,32.1,85,97,2.39,BR,1698516778
235,lethem,3.3803,-59.7968,34.45,43,96,4.86,GY,1698516778
236,petropavlovsk-kamchatsky,53.0452,158.6483,3.03,59,0,4.0,RU,1698516778
237,colchani,-20.3,-66.9333,14.46,8,38,8.72,BO,1698516779
238,barra de santo antonio,-9.4047,-35.5072,29.6,66,98,5.1,BR,1698516779
239,longyearbyen,78.2186,15.6401,-4.09,93,75,3.6,SJ,1698516779
240,idri,27.5,13.2667,26.84,17,23,3.51,LY,1698516779
241,torghay,49.6339,63.4981,6.54,88,100,8.26,KZ,1698516779
242,galliano,29.4422,-90.2992,29.44,48,0,4.12,US,1698516780
243,harnai,30.1005,67.9374,21.54,35,24,1.03,PK,1698516780
244,port-gentil,-0.7193,8.7815,26.59,83,8,4.39,GA,1698516780
245,naze,28.3667,129.4833,19.23,64,3,5.04,JP,1698516780
246,lodja,-3.4833,23.4333,22.48,90,84,0.19,CD,1698516780
247,cobija,-11.0267,-68.7692,32.1,66,40,5.14,BO,1698516781
248,karaton,-6.3424,106.1045,24.14,80,80,0.4,ID,1698516781
249,kidal,18.4411,1.4078,32.04,9,15,4.11,ML,1698516781
250,rocha,-34.4833,-54.3333,26.34,46,18,2.82,UY,1698516781
251,dhuusamarreeb,5.535,46.3861,27.1,71,100,7.42,SO,1698516781
252,madalena,41.2162,-8.3345,17.32,93,100,7.74,PT,1698516782
253,usogorsk,63.4106,48.6872,-3.52,83,100,4.33,RU,1698516782
254,itoman,26.1247,127.6694,21.01,64,1,1.54,JP,1698516782
255,argostolion,38.1811,20.489,23.19,56,20,0.0,GR,1698516782
256,crane,31.3974,-102.3501,23.36,71,95,9.16,US,1698516783
257,susuman,62.7833,148.1667,-17.23,99,95,0.45,RU,1698516783
258,caaguazu,-25.45,-56.0167,25.24,90,99,3.06,PY,1698516783
259,borogontsy,62.6683,131.1683,-7.59,89,82,4.61,RU,1698516783
260,ambodifotatra,-16.9833,49.85,25.62,83,7,3.33,MG,1698516783
261,kumbo,6.2,10.6667,16.81,84,35,0.65,CM,1698516784
262,polyarnyy,69.1989,33.4478,-4.57,88,100,1.65,RU,1698516784
263,dryden,49.7833,-92.7503,-1.84,86,100,6.17,CA,1698516784
264,brookings,44.3114,-96.7984,-2.57,81,100,3.09,US,1698516784
265,labrador city,52.9463,-66.9114,2.95,81,75,7.2,CA,1698516785
266,aswan,24.0934,32.907,27.94,44,47,6.35,EG,1698516785
267,kenema,7.8767,-11.1875,24.93,93,72,0.93,SL,1698516785
268,axim,4.8699,-2.2405,26.28,80,23,2.47,GH,1698516785
269,talcahuano,-36.7167,-73.1167,12.68,91,100,10.47,CL,1698516786
270,champerico,14.3,-91.9167,32.3,75,43,5.01,GT,1698516786
271,barah,13.7,30.3667,28.19,54,82,6.29,SD,1698516623
272,sisimiut,66.9395,-53.6735,-4.2,81,89,5.16,GL,1698516786
273,thunder bay,48.4001,-89.3168,2.16,55,83,4.29,CA,1698516683
274,necochea,-38.5473,-58.7368,26.4,38,37,5.91,AR,1698516787
275,port douglas,-16.4833,145.4667,23.2,76,85,5.32,AU,1698516787
276,eyl,7.9803,49.8164,27.1,75,96,7.33,SO,1698516787
277,midvagur,62.0511,-7.1939,7.46,70,75,4.63,FO,1698516787
278,chonchi,-42.6128,-73.8092,10.07,76,71,6.46,CL,1698516788
279,fale old settlement,-9.3852,-171.2468,28.42,74,24,4.73,TK,1698516788
280,yarmouth,41.7057,-70.2286,26.26,71,0,6.69,US,1698516788
281,ilulissat,69.2167,-51.1,-3.99,80,40,5.14,GL,1698516788
282,menongue,-14.6585,17.691,21.8,56,98,3.18,AO,1698516790
283,zhangzhou,24.5133,117.6556,20.43,85,99,0.41,CN,1698516759
284,nizhniy kuranakh,58.8353,125.4869,-1.3,96,100,3.77,RU,1698516790
285,cold lake,54.4502,-110.2017,-3.03,80,100,6.69,CA,1698516790
286,goundam,16.4145,-3.6708,34.91,8,10,2.44,ML,1698516791
287,kapuskasing,49.4169,-82.4331,-1.95,80,100,6.17,CA,1698516791
288,namtsy,62.7161,129.6658,-6.35,87,100,4.29,RU,1698516791
289,bathsheba,13.2167,-59.5167,29.36,74,90,5.2,BB,1698516791
290,johi,26.6921,67.6133,28.82,25,10,1.15,PK,1698516791
291,ivdel',60.6911,60.4206,-3.78,81,50,1.79,RU,1698516792
292,tambopata,-12.7333,-69.1833,26.94,78,75,1.54,PE,1698516792
293,tauberbischofsheim,49.6247,9.6628,11.84,97,100,3.34,DE,1698516792
294,portland,45.5234,-122.6762,9.99,56,0,4.92,US,1698516450
295,monrovia,6.3005,-10.7969,27.87,80,60,3.27,LR,1698516793
296,egilsstadir,65.2653,-14.3948,0.95,93,40,3.09,IS,1698516712
297,riberalta,-10.9833,-66.1,31.11,70,75,3.6,BO,1698516793
298,montes claros,-16.735,-43.8617,28.8,55,100,3.46,BR,1698516793
299,la ronge,55.1001,-105.2842,-3.86,68,100,2.57,CA,1698516793
300,newman,37.3138,-121.0208,16.69,33,38,5.36,US,1698516794
301,sao joao da barra,-21.6403,-41.0511,27.05,87,100,6.6,BR,1698516708
302,al mijlad,11.0333,27.7333,28.4,52,78,3.85,SD,1698516623
303,labytnangi,66.6572,66.4183,-11.72,89,69,1.94,RU,1698516794
304,choele choel,-39.2667,-65.6833,27.1,14,100,14.35,AR,1698516794
305,la'ie,21.6477,-157.9253,26.98,87,26,0.45,US,1698516795
306,plastun,44.7561,136.2939,0.84,57,0,2.79,RU,1698516795
307,middelburg,-25.7751,29.4648,21.06,40,92,3.61,ZA,1698516795
308,zhezqazghan,47.7833,67.7667,6.68,83,99,3.16,KZ,1698516795
309,santana,-0.0583,-51.1817,35.1,46,20,6.17,BR,1698516796
310,bandar lampung,-5.4254,105.258,23.56,85,42,1.36,ID,1698516796
311,bemidji,47.4736,-94.8803,-1.64,85,75,5.14,US,1698516586
312,qamdo,31.1667,97.2333,-4.37,51,4,0.79,CN,1698516796
313,kuta,-8.7233,115.1723,25.97,88,40,1.03,ID,1698516796
314,yanbu,24.0891,38.0637,32.02,62,20,4.12,SA,1698516721
315,meadow lake,34.8014,-106.5436,21.02,34,0,4.52,US,1698516770
316,chui,-33.6971,-53.4616,23.4,67,45,2.64,UY,1698516797
317,lazaro cardenas,17.9583,-102.2,29.5,67,98,1.18,MX,1698516797
318,alofi,-19.0595,-169.9187,23.72,70,68,8.77,NU,1698516797
319,lubny,50.0163,32.9969,9.96,77,100,8.47,UA,1698516798
320,atafu village,-8.5421,-172.5159,28.43,74,38,4.21,TK,1698516798
321,haiku-pauwela,20.9219,-156.3051,26.01,73,40,3.58,US,1698516798
322,mugia,43.1041,-9.2179,16.06,78,100,10.72,ES,1698516798
323,anqing,30.5092,117.0506,20.54,65,79,0.81,CN,1698516656
324,kuanda,56.3161,116.0806,-3.38,82,100,4.33,RU,1698516799
325,korem,12.5058,39.5228,13.57,84,98,2.12,ET,1698516799
326,whitehorse,60.7161,-135.0538,-6.57,93,100,4.12,CA,1698516799
327,geraldton,-28.7667,114.6,15.23,77,1,6.69,AU,1698516800
328,okhotsk,59.3833,143.3,-3.95,83,99,5.75,RU,1698516800
329,zalingei,12.9096,23.4741,29.73,31,74,3.7,SD,1698516800
330,lautoka,-17.6167,177.4667,22.92,88,20,1.03,FJ,1698516801
331,raduzhny,62.0961,77.475,-10.86,91,76,3.43,RU,1698516801
332,bel ombre,-4.6167,55.4167,27.34,80,94,4.12,SC,1698516801
333,chulakkurgan,43.765,69.1814,17.47,51,100,4.19,KZ,1698516801
334,rundu,-17.9333,19.7667,27.88,30,50,0.91,NA,1698516802
335,xinyuan,37.3,99.0,-2.68,42,2,1.68,CN,1698516541
336,luderitz,-26.6481,15.1594,18.73,53,0,13.12,NA,1698516802
337,lubang,13.8584,120.124,28.42,75,18,8.34,PH,1698516802
338,san miguel,13.4833,-88.1833,29.69,71,58,1.78,SV,1698516802
339,qaqortoq,60.7167,-46.0333,0.8,77,20,0.73,GL,1698516803
340,boende,-0.2167,20.8667,23.9,81,92,0.55,CD,1698516803
341,juba,4.8517,31.5825,22.18,93,96,1.84,SS,1698516803
342,virac,13.6333,124.2167,22.44,87,12,3.25,PH,1698516804
343,barrouallie,13.2333,-61.2667,29.79,74,20,1.54,VC,1698516804
344,badr hunayn,23.7829,38.7905,30.03,54,58,3.82,SA,1698516804
345,alaghsas,17.0187,8.0168,31.94,9,0,3.09,NE,1698516804
346,mejit,10.2753,170.8646,28.49,73,95,8.45,MH,1698516805
347,taroudant,30.4703,-8.877,21.42,68,83,6.1,MA,1698516805
348,hasaki,35.7333,140.8333,12.22,62,12,6.74,JP,1698516805
349,port lincoln,-34.7333,135.8667,9.79,77,22,0.93,AU,1698516805
350,i-n-salah,27.1935,2.4607,30.12,14,23,1.39,DZ,1698516805
351,jalqani,12.4486,34.2186,26.35,70,85,3.58,SD,1698516806
352,san rafael,-34.6177,-68.3301,27.98,14,2,7.1,AR,1698516579
353,lewiston orchards,46.3804,-116.9754,3.73,73,0,0.0,US,1698516806
354,ebon,4.582,168.6964,28.07,75,93,4.86,MH,1698516806
355,male,4.1748,73.5089,27.52,80,91,3.83,MV,1698516664
356,gaiman,-43.2897,-65.4929,22.82,24,100,17.67,AR,1698516807
357,saint-philippe,-21.3585,55.7679,24.77,84,43,3.04,RE,1698516807
358,fort stockton,30.894,-102.8793,28.2,59,0,6.69,US,1698516585
359,san antonio de pale,-1.4014,5.6325,26.32,78,10,3.79,GQ,1698516807
360,novo aripuana,-5.1206,-60.3797,40.51,21,52,1.85,BR,1698516808
361,puerto quijarro,-17.7833,-57.7667,38.21,30,95,3.85,BO,1698516808
362,saint-pierre,-21.3393,55.4781,24.82,73,20,1.54,RE,1698516808
363,argo,37.6333,22.7333,20.44,68,7,1.18,GR,1698516808
364,priargunsk,50.3691,119.1012,3.71,53,97,1.5,RU,1698516738
365,mukalla,14.5425,49.1242,26.8,70,11,3.11,YE,1698516809
366,yulinshi,38.2906,109.7494,13.47,45,9,1.7,CN,1698516809
367,vorkuta,67.5,64.0,-14.44,99,97,1.64,RU,1698516809
368,kamien pomorski,53.9685,14.7726,8.2,79,97,4.59,PL,1698516809
369,helena valley southeast,46.6153,-111.9216,-3.26,71,0,1.79,US,1698516810
370,tucuma,-0.1833,-50.05,33.46,49,18,5.57,BR,1698516810
371,gagarawa,12.4074,9.5277,30.29,16,30,3.23,NG,1698516810
372,pikeville,37.4793,-82.5188,27.95,54,40,0.0,US,1698516810
373,al bardiyah,31.7561,25.0865,22.51,76,43,2.45,LY,1698516810
374,avon,41.4517,-82.0354,14.73,83,100,4.63,US,1698516594
375,cheremshan,54.6667,51.5,0.78,98,100,5.1,RU,1698516811
376,kitimat,54.0524,-128.6534,-0.79,43,5,0.38,CA,1698516730
377,vila franca do campo,37.7167,-25.4333,19.38,99,93,5.35,PT,1698516811
378,noumea,-22.2763,166.4572,19.99,79,41,5.62,NC,1698516792
379,el abiodh sidi cheikh,32.893,0.5484,23.06,21,100,2.09,DZ,1698516812
380,acarau,-2.8856,-40.12,29.97,60,5,10.87,BR,1698516524
381,lang son,21.8333,106.7333,20.83,97,100,1.81,VN,1698516812
382,koryazhma,61.3143,47.1691,-2.27,64,100,4.24,RU,1698516812
383,bartica,6.4,-58.6167,30.18,47,98,1.44,GY,1698516625
384,kharan,28.5833,65.4167,24.99,31,7,0.31,PK,1698516812
385,yorkton,51.2167,-102.4677,-4.09,58,20,7.72,CA,1698516813
386,villa huidobro,-34.8383,-64.5869,30.42,28,33,5.93,AR,1698516813
387,komotini,41.1228,25.3964,18.36,92,4,0.77,GR,1698516813
388,ipira,-12.1583,-39.7372,36.83,23,9,7.08,BR,1698516813
389,kudahuvadhoo,2.6708,72.8944,27.68,80,59,5.95,MV,1698516814
390,lagoa,39.05,-27.9833,17.36,61,100,11.25,PT,1698516814
391,silchar,24.8167,92.8,20.99,91,0,1.07,IN,1698516814
392,el nido,11.1858,119.3956,27.94,78,11,4.0,PH,1698516814
393,sagua de tanamo,20.5819,-75.2414,30.42,55,19,4.15,CU,1698516699
394,gobabis,-22.45,18.9667,25.06,14,0,5.5,NA,1698516814
395,kayangel,8.0823,134.7173,27.46,75,98,0.93,PW,1698516815
396,sao sepe,-30.1606,-53.5653,23.67,82,100,2.1,BR,1698516690
397,richland,40.7834,-82.5499,12.23,93,100,3.09,US,1698516815
398,stony plain,53.5334,-114.0021,-1.06,70,100,1.79,CA,1698516643
399,mirny,62.5353,113.9611,-8.59,84,27,4.53,RU,1698516815
400,panjab,34.388,67.0233,6.61,37,27,1.19,AF,1698516816
401,neya,58.2972,43.8681,-2.43,88,99,4.26,RU,1698516816
402,lieksa,63.3167,30.0167,-4.26,82,47,2.88,FI,1698516816
403,pucon,-39.2822,-71.9543,8.53,99,100,6.59,CL,1698516565
404,san matias,-16.3667,-58.4,39.27,26,76,5.79,BO,1698516817
405,mananara,-16.1667,49.7667,24.06,89,10,1.71,MG,1698516817
406,cabo san lucas,22.8909,-109.9124,28.67,57,0,3.09,MX,1698516817
407,paghman,34.5875,68.9533,11.63,40,31,1.3,AF,1698516817
408,nizhnesortymskiy,62.4397,71.7603,-11.04,90,9,2.65,RU,1698516817
409,maralal,1.0968,36.698,17.32,78,83,3.19,KE,1698516818
410,taltal,-25.4,-70.4833,18.46,68,14,3.16,CL,1698516818
411,richmond,37.5538,-77.4603,30.78,47,20,2.57,US,1698516736
412,kertih,4.5141,103.4483,25.53,86,58,1.3,MY,1698516818
413,es castell,39.8795,4.2854,20.38,73,0,6.69,ES,1698516818
414,deniliquin,-35.5333,144.9667,12.27,41,32,3.23,AU,1698516819
415,nyandoma,61.669,40.1991,-4.16,93,100,2.95,RU,1698516819
416,maryport,54.7143,-3.4951,10.5,91,91,0.89,GB,1698516819
417,huarmey,-10.0681,-78.1522,22.78,74,72,5.95,PE,1698516819
418,saudarkrokur,65.7461,-19.6394,0.16,83,89,2.01,IS,1698516819
419,formosa,-26.1775,-58.1781,21.99,94,100,4.12,AR,1698516820
420,mwanza,-2.5167,32.9,23.78,69,86,3.35,TZ,1698516820
421,lahad datu,5.0268,118.327,24.29,92,18,1.29,MY,1698516820
422,salavan,15.7167,106.4167,22.63,97,69,1.34,LA,1698516820
423,maumere,-8.6199,122.2111,26.33,73,30,2.61,ID,1698516820
424,junin de los andes,-39.9504,-71.0694,6.53,94,100,5.53,AR,1698516821
425,bradford,53.7939,-1.7521,10.83,98,100,3.6,GB,1698516821
426,buncrana,55.1333,-7.45,11.87,90,99,7.19,IE,1698516821
427,lai chau,22.3997,103.4517,18.24,98,100,0.75,VN,1698516821
428,fortuna,40.5982,-124.1573,12.74,86,0,3.09,US,1698516666
429,vilyuysk,63.7553,121.6247,-5.56,91,100,2.24,RU,1698516822
430,natal,-5.795,-35.2094,30.36,54,75,7.2,BR,1698516750
431,flin flon,54.7682,-101.865,-4.09,80,100,4.12,CA,1698516822
432,coruripe,-10.1256,-36.1756,27.92,61,100,6.65,BR,1698516822
433,idabel,33.8957,-94.8263,22.67,74,75,3.09,US,1698516822
434,lakhtar,22.85,71.7833,28.35,27,94,2.8,IN,1698516823
435,las lajitas,-24.6833,-64.25,34.29,30,2,3.5,AR,1698516823
436,siwa oasis,29.2041,25.5195,26.46,30,37,2.45,EG,1698516823
437,caleta de carquin,-11.0925,-77.6267,21.91,75,100,5.6,PE,1698516823
438,pangkalanbuun,-2.6833,111.6167,24.67,89,28,0.5,ID,1698516823
439,darwin,-12.4611,130.8418,27.99,81,18,2.57,AU,1698516774
440,suances,43.4334,-4.0434,22.21,54,0,7.72,ES,1698516824
441,gondia,21.45,80.2,18.62,65,1,0.28,IN,1698516824
442,dul'durga,50.6761,113.5931,-0.67,50,93,7.19,RU,1698516824
443,ikskile,56.8333,24.5,0.91,74,100,0.88,LV,1698516824
444,bichura,50.5881,107.6022,-3.78,68,76,1.6,RU,1698516824
445,sayat,38.7839,63.8803,23.32,27,100,2.61,TM,1698516825
446,talnakh,69.4865,88.3972,-15.44,92,77,0.81,RU,1698516825
447,saldanha,-33.0117,17.9442,15.03,62,0,11.86,ZA,1698516825
448,khash,28.2211,61.2158,19.5,40,32,2.38,IR,1698516825
449,malpe,13.35,74.7167,28.61,85,6,1.19,IN,1698516825
450,lihue,21.9789,-159.3672,24.58,82,0,3.6,US,1698516825
451,el granada,37.5027,-122.4694,17.48,62,0,0.45,US,1698516826
452,atkarsk,51.8718,45.0078,12.1,90,91,7.47,RU,1698516826
453,constantia,44.1833,28.65,17.61,48,65,2.15,RO,1698516735
454,aykhal,66.0,111.5,-17.17,99,89,4.17,RU,1698516826
455,port saint john's,-31.6229,29.5448,15.46,85,100,6.74,ZA,1698516826
456,sokoni,-6.4333,39.55,26.79,83,32,4.18,TZ,1698516827
457,kolonia,50.9333,6.95,13.31,82,75,4.12,DE,1698516588
458,newtown trim,53.5561,-6.77,11.93,90,83,4.15,IE,1698516827
459,jayapura,-2.5333,140.7,28.66,91,63,1.48,ID,1698516827
460,salekhard,66.53,66.6019,-11.9,90,73,1.06,RU,1698516827
461,soc trang,9.6033,105.98,24.94,92,100,2.34,VN,1698516828
462,wagar,16.1525,36.2032,33.06,36,29,3.51,SD,1698516828
463,kharp,66.8014,65.8081,-11.73,90,83,3.19,RU,1698516828
464,bargaal,11.2864,51.0773,26.34,78,48,3.09,SO,1698516828
465,fuli,46.7217,131.1394,2.63,42,91,1.84,CN,1698516828
466,al bayda',32.7627,21.7551,17.45,76,0,1.24,LY,1698516828
467,magadan,59.5667,150.8,-3.03,76,95,2.86,RU,1698516829
468,hammerfest,70.6634,23.6821,0.25,74,100,1.54,NO,1698516829
469,happy valley-goose bay,53.3168,-60.3315,4.17,87,100,2.06,CA,1698516829
470,mili,6.0815,171.735,28.21,75,97,5.29,MH,1698516829
471,igarka,67.4667,86.5833,-14.51,93,93,2.21,RU,1698516829
472,ullal,12.8,74.85,28.53,83,20,0.0,IN,1698516830
473,dudinka,69.4058,86.1778,-15.21,92,90,5.81,RU,1698516830
474,dahegam,23.1667,72.8167,25.87,31,100,2.55,IN,1698516830
475,mwinilunga,-11.7358,24.4293,19.15,77,60,2.69,ZM,1698516830
476,shiraz,29.6036,52.5388,19.69,37,0,2.06,IR,1698516513
477,trinidad,-14.8333,-64.9,35.76,37,96,5.19,BO,1698516831
478,ondjiva,-17.0667,15.7333,29.02,16,32,2.89,AO,1698516680
479,healesville,-37.65,145.5167,9.83,87,61,1.11,AU,1698516787
480,loango,-4.6719,11.8312,26.59,81,34,2.15,CG,1698516831
481,kish,26.5578,54.0194,27.15,69,0,2.06,IR,1698516831
482,sainte-rose,16.3324,-61.6979,27.02,89,75,5.66,GP,1698516832
483,garoowe,8.4054,48.4845,25.95,68,100,7.61,SO,1698516832
484,spring creek,40.7266,-115.5859,2.12,47,7,3.42,US,1698516832
485,borisovka,50.6236,35.9903,9.08,83,100,13.01,RU,1698516832
486,choyr,46.3611,108.3611,4.07,53,13,5.75,MN,1698516832
487,san julian,21.0167,-102.1667,22.64,43,44,3.53,MX,1698516832
488,eduardo castex,-35.915,-64.2945,30.52,23,56,8.51,AR,1698516833
489,fort bragg,35.139,-79.006,29.9,50,0,3.09,US,1698516833
490,boa vista,2.8197,-60.6733,34.99,43,40,3.09,BR,1698516833
491,fenghuang,27.9356,109.5996,15.47,80,52,0.75,CN,1698516833
492,sines,37.9562,-8.8698,19.05,84,19,4.47,PT,1698516833
493,selty,57.3132,52.1345,-3.5,95,97,3.87,RU,1698516834
494,ginir,7.1333,40.7,14.37,89,49,1.15,ET,1698516834
495,gadzhiyevo,69.2551,33.3362,-4.8,89,100,1.77,RU,1698516834
496,shilka,51.85,116.0333,2.72,52,90,4.99,RU,1698516834
497,fedorovskiy,45.0972,40.9517,19.57,59,60,7.82,RU,1698516834
498,vidyayevo,69.3191,32.8049,-4.83,91,100,1.77,RU,1698516834
499,holyhead,53.3062,-4.6321,12.76,82,75,3.6,GB,1698516835
500,mwene-ditu,-7.0,23.45,21.5,80,70,0.64,CD,1698516835
501,boone,39.0334,-92.3335,5.44,86,95,0.45,US,1698516835
502,namdrik,5.5994,168.1028,28.15,77,99,5.99,MH,1698516835
503,severnoye,56.3491,78.3619,-6.12,87,13,1.79,RU,1698516836
504,saint-francois,46.4154,3.9054,15.92,63,0,4.12,FR,1698516836
505,pizarro,4.9533,-77.366,23.09,96,100,3.95,CO,1698516836
506,verkhnevilyuysk,63.4453,120.3167,-6.85,95,100,1.52,RU,1698516737
507,baotou,40.6522,109.8222,11.35,29,22,1.48,CN,1698516836
508,san buenaventura,27.0833,-101.5333,28.37,65,75,2.06,MX,1698516778
509,santa maria,-29.6842,-53.8069,25.15,75,100,3.3,BR,1698516826
510,douz,33.4663,9.0203,26.41,32,89,2.85,TN,1698516837
511,kone,-21.0595,164.8658,20.34,87,51,3.1,NC,1698516837
512,lorengau,-2.0226,147.2712,27.42,80,77,3.63,PG,1698516837
513,rexburg,43.826,-111.7897,1.9,38,0,2.06,US,1698516722
514,dapa,9.7594,126.0531,27.0,81,31,1.47,PH,1698516837
515,minas de marcona,-15.2119,-75.1103,19.21,66,84,5.73,PE,1698516838
516,cockburn town,21.4612,-71.1419,28.1,74,15,6.92,TC,1698516838
517,du quoin,38.0114,-89.2362,9.47,53,100,2.92,US,1698516838
518,qarqaraly,49.4058,75.4742,-2.29,95,100,3.36,KZ,1698516838
519,baiyin,36.5583,104.2081,10.82,44,5,0.97,CN,1698516838
520,pithoragarh,29.5833,80.2167,10.02,82,100,1.14,IN,1698516839
521,santa ana,33.7456,-117.8678,22.06,68,40,2.06,US,1698516839
522,gaalkacyo,6.7697,47.4308,25.74,78,100,5.42,SO,1698516839
523,mangrol,21.1167,70.1167,27.48,64,96,0.83,IN,1698516839
524,sierra grande,-41.606,-65.3557,21.98,21,100,20.58,AR,1698516839
525,san martin,-33.081,-68.4681,33.3,10,1,3.32,AR,1698516840
526,san juan,-31.5375,-68.5364,35.73,4,1,4.35,AR,1698516638
527,carutapera,-1.195,-46.02,31.5,59,16,5.91,BR,1698516840
528,bulawayo,-20.15,28.5833,27.35,13,17,2.49,ZW,1698516840
529,naracoorte,-36.9579,140.7383,3.16,91,80,1.07,AU,1698516840
530,kualakapuas,-3.0091,114.3876,23.98,83,82,1.22,ID,1698516840
531,ejutla de crespo,16.5667,-96.7333,24.53,54,95,1.86,MX,1698516841
532,sosnogorsk,63.6023,53.8817,-5.81,89,100,2.24,RU,1698516841
533,chhindwara,22.0667,78.9333,18.44,54,2,1.52,IN,1698516841
534,bamboo flat,11.7,92.7167,27.46,78,50,1.14,IN,1698516841
535,sur,22.5667,59.5289,28.14,60,94,1.22,OM,1698516841
536,priego de cordoba,37.4381,-4.1952,16.38,66,1,1.61,ES,1698516623
537,nova vicosa,-17.8919,-39.3719,28.13,66,71,6.66,BR,1698516842
538,ruteng,-8.6136,120.4721,16.05,83,72,0.94,ID,1698516842
539,n'zeto,-7.2312,12.8666,25.87,85,48,4.77,AO,1698516842
540,cicero dantas,-10.6,-38.3833,34.81,24,99,8.41,BR,1698516842
541,kununurra,-15.7667,128.7333,16.99,67,68,1.03,AU,1698516842
542,khorinsk,52.1657,109.7726,-5.21,55,38,3.56,RU,1698516843
543,cinisi,38.1562,13.1073,22.56,69,20,3.6,IT,1698516843
544,ozu,33.5,132.55,11.02,82,0,3.7,JP,1698516843
545,toliara,-23.35,43.6667,24.48,74,1,2.01,MG,1698516843
546,tete,-16.1564,33.5867,33.93,28,15,2.3,MZ,1698516843
547,faya-largeau,17.9257,19.1043,30.92,14,75,5.43,TD,1698516844
548,togur,58.3631,82.8265,-7.14,89,64,2.24,RU,1698516844
549,vetluzhskiy,58.3902,45.4654,-2.76,73,100,1.34,RU,1698516844
550,ahar,38.4774,47.0699,15.48,41,36,2.44,IR,1698516844
551,kratie,12.4881,106.0188,24.45,95,100,1.02,KH,1698516845
552,puerto berrio,6.4916,-74.4033,27.02,81,100,0.3,CO,1698516845
553,barakani,-12.1356,44.4317,26.06,81,5,3.53,KM,1698516845
554,lycksele,64.5954,18.6735,-4.76,100,100,1.54,SE,1698516845
555,kargasok,59.0556,80.8572,-11.13,97,71,2.24,RU,1698516845
556,tosontsengel,48.7567,98.2839,-5.25,62,11,0.64,MN,1698516846
557,isangel,-19.55,169.2667,23.39,86,41,4.15,VU,1698516846
558,ilabaya,-17.4208,-70.5133,23.49,45,46,5.62,PE,1698516846
559,faaa,-17.55,-149.6,26.98,69,75,1.54,PF,1698516846
560,magburaka,8.7167,-11.95,25.15,92,99,1.01,SL,1698516847
561,urucui,-7.2294,-44.5561,41.12,17,23,3.93,BR,1698516847
562,harper,4.375,-7.7169,26.56,82,62,3.81,LR,1698516847
563,kasongo-lunda,-6.4667,16.8167,23.16,93,98,0.63,CD,1698516847
564,monte alegre,-2.0078,-54.0692,37.04,31,26,3.26,BR,1698516646
565,shengli,37.4564,118.4856,17.72,42,64,2.22,CN,1698516848
566,saint-joseph,-21.3667,55.6167,24.21,85,26,3.67,RE,1698516848
567,alice springs,-23.7,133.8833,11.75,14,56,2.06,AU,1698516848
568,sosnovo-ozerskoye,52.5249,111.5418,-6.26,46,33,6.97,RU,1698516848
569,taft,31.7471,54.2088,17.97,26,0,2.06,IR,1698516848
570,macapa,0.0389,-51.0664,34.99,46,20,6.17,BR,1698516849
571,chicoana,-25.1009,-65.5331,32.81,15,0,5.65,AR,1698516849
572,pemangkat,1.1667,108.9667,25.33,87,100,2.49,ID,1698516849
573,tan-tan,28.438,-11.1032,21.97,78,40,6.69,MA,1698516849
574,miramichi,47.0043,-65.4654,21.51,69,59,6.43,CA,1698516849
575,ust'-ilimsk,58.0006,102.6619,-3.64,56,100,5.36,RU,1698516850
576,loukhi,66.0764,33.0381,-4.41,82,28,1.6,RU,1698516850
577,vuktyl,63.8567,57.3094,-10.5,95,58,0.89,RU,1698516850
