City_ID,City,Lat,Lng,Max Temp,Humidity,Cloudiness,Wind Speed,Country,Date
0,tiksi,71.6872,128.8694,-20.43,100,57,1.8,RU,1698691020
1,margate,51.3813,1.3862,10.17,91,100,0.45,GB,1698691056
2,port-aux-francais,-49.35,70.2167,2.83,78,100,15.49,TF,1698690936
3,isafjordur,66.0755,-23.124,0.02,86,75,1.03,IS,1698690943
4,edinburgh of the seven seas,-37.0676,-12.3116,12.09,90,100,14.09,SH,1698690938
5,mogocha,53.7333,119.7667,-8.96,44,100,0.25,RU,1698691227
6,avarua,-21.2078,-159.775,24.03,73,20,7.2,CK,1698691187
7,nikolayevsk-on-amure,53.1406,140.73,-0.03,88,15,2.23,RU,1698691228
8,puerto natales,-51.7236,-72.4875,7.25,39,0,3.09,CL,1698690687
9,chonchi,-42.6128,-73.8092,10.62,71,90,1.57,CL,1698691035
10,grytviken,-54.2811,-36.5092,5.81,73,1,4.49,GS,1698690954
11,bredasdorp,-34.5322,20.0403,14.85,73,0,9.27,ZA,1698690954
12,constantia,44.1833,28.65,15.38,72,0,4.15,RO,1698690947
13,ribeira grande,38.5167,-28.7,19.22,77,75,6.69,PT,1698690979
14,manacapuru,-3.2997,-60.6206,36.41,34,30,2.54,BR,1698691229
15,yellowknife,62.456,-114.3525,-0.88,88,75,6.71,CA,1698690940
16,wailua homesteads,22.0669,-159.378,23.75,89,100,3.6,US,1698690932
17,benoy,8.9833,16.3199,26.72,63,100,0.84,TD,1698691230
18,jamestown,42.097,-79.2353,6.77,98,100,3.09,US,1698690901
19,margaret river,-33.95,115.0667,9.06,89,4,4.39,AU,1698690970
20,new norfolk,-42.7826,147.0587,8.72,90,9,2.93,AU,1698691193
21,ilulissat,69.2167,-51.1,4.01,48,0,6.69,GL,1698690962
22,blackmans bay,-43.0167,147.3167,8.07,74,5,0.45,AU,1698690937
23,hamilton,39.1834,-84.5333,9.0,83,100,5.66,US,1698690514
24,waitangi,-43.9535,-176.5597,12.68,88,79,3.58,NZ,1698690944
25,udachny,66.4167,112.4,-20.41,100,99,1.46,RU,1698690953
26,west island,-12.1568,96.8225,25.99,89,100,6.69,CC,1698690942
27,caleta de carquin,-11.0925,-77.6267,22.02,76,100,4.98,PE,1698691232
28,ratnagiri,16.9833,73.3,26.02,64,9,1.51,IN,1698691232
29,pushkar,26.5,74.55,23.69,33,12,0.98,IN,1698691233
30,adamstown,-25.066,-130.1015,22.58,76,100,4.54,PN,1698690951
31,iqaluit,63.7506,-68.5145,-10.15,72,75,6.71,CA,1698690949
32,zapala,-38.8992,-70.0544,9.19,30,1,7.74,AR,1698691233
33,thompson,55.7435,-97.8558,-6.91,73,75,6.69,CA,1698690966
34,tuensang,26.2833,94.8333,16.06,86,69,1.53,IN,1698691234
35,ushuaia,-54.8,-68.3,3.81,64,75,9.26,AR,1698690769
36,san luis de la loma,17.2706,-100.8939,29.44,73,10,2.2,MX,1698691137
37,rudbar,30.15,62.6,25.39,24,3,1.38,AF,1698691235
38,sao joao da barra,-21.6403,-41.0511,33.05,85,100,7.46,BR,1698691235
39,bethel,41.3712,-73.414,13.85,90,100,0.0,US,1698690948
40,olonkinbyen,70.9221,-8.7187,1.04,66,100,5.67,SJ,1698690978
41,chingola,-12.529,27.8838,22.1,57,100,3.48,ZM,1698691236
42,port elizabeth,-33.918,25.5701,16.16,74,20,8.23,ZA,1698691005
43,port mathurin,-19.6833,63.4167,24.87,81,7,8.0,MU,1698691030
44,hawaiian paradise park,19.5933,-154.9731,26.61,90,100,2.57,US,1698690963
45,utrik,11.2278,169.8474,28.09,80,100,9.22,MH,1698690955
46,mandera,3.9366,41.867,25.99,69,94,1.97,KE,1698691237
47,lubang,13.8584,120.124,27.98,75,62,9.71,PH,1698691237
48,kabo,7.6994,18.629,25.93,66,2,1.53,CF,1698691238
49,karlskoga,59.3267,14.5239,0.96,97,100,6.22,SE,1698691238
50,aasiaat,68.7098,-52.8699,-3.59,77,3,8.86,GL,1698690805
51,ciudad lazaro cardenas,17.9583,-102.2,29.47,72,18,2.12,MX,1698690731
52,luba,3.4568,8.5547,26.94,83,97,3.12,GQ,1698691238
53,burnie,-41.0667,145.9167,7.47,75,18,7.41,AU,1698691029
54,klaksvik,62.2266,-6.589,4.51,62,89,7.98,FO,1698690866
55,albany,42.6001,-73.9662,10.36,92,100,0.45,US,1698691013
56,white rock,49.0164,-122.8026,10.29,67,67,0.51,CA,1698691239
57,qaqortoq,60.7167,-46.0333,6.33,54,100,12.62,GL,1698691240
58,papatowai,-46.5619,169.4708,8.85,90,100,0.59,NZ,1698691240
59,oshakati,-17.7833,15.6833,33.01,10,5,5.21,NA,1698691240
60,smithers,54.7804,-127.1743,-4.82,93,40,2.57,CA,1698691240
61,queenstown,-31.8976,26.8753,7.19,83,69,4.91,ZA,1698690823
62,fang,19.9169,99.2145,20.74,99,100,0.75,TH,1698690791
63,acarau,-2.8856,-40.12,28.56,64,100,8.64,BR,1698690752
64,samraong,12.4526,105.5873,23.24,98,100,1.65,KH,1698691241
65,at-bashi,41.1702,75.8106,7.52,51,100,1.76,KG,1698691241
66,lompoc,34.6391,-120.4579,25.01,20,20,2.06,US,1698691241
67,puerto ayora,-0.7393,-90.3518,27.98,89,99,1.79,EC,1698691242
68,mount gambier,-37.8333,140.7667,8.41,63,53,3.9,AU,1698691086
69,whitehorse,60.7161,-135.0538,0.45,92,75,1.03,CA,1698691242
70,nar'yan-mar,67.6713,53.087,-6.61,94,100,6.71,RU,1698690707
71,rongelap,11.1635,166.8941,28.41,79,100,10.48,MH,1698691162
72,creswell,43.9179,-123.0245,10.31,39,1,1.42,US,1698691242
73,atafu village,-8.5421,-172.5159,28.6,76,64,6.44,TK,1698690999
74,marine corps base hawaii - mcbh,21.4453,-157.7513,28.92,80,40,2.57,US,1698691243
75,georgetown,5.4112,100.3354,27.96,92,20,2.68,MY,1698690555
76,shalqar,47.8333,59.6,6.3,64,100,8.73,KZ,1698691243
77,manado,1.487,124.8455,23.43,94,20,1.03,ID,1698691244
78,bestensee,52.25,13.65,14.16,88,0,3.6,DE,1698691244
79,polyarnyy,69.1989,33.4478,-5.2,89,100,7.93,RU,1698690725
80,kayangel,8.0823,134.7173,28.33,75,23,3.58,PW,1698691244
81,enewetak,11.3474,162.3373,28.69,78,100,8.7,MH,1698691099
82,la passe,45.5549,-0.8967,14.43,80,21,8.76,FR,1698691244
83,romankivtsi,48.4847,27.2138,15.18,45,42,3.23,UA,1698691245
84,andalgala,-27.5819,-66.3165,25.09,49,1,3.41,AR,1698690868
85,punta arenas,-53.15,-70.9167,8.01,49,75,6.69,CL,1698691245
86,college,64.8569,-147.8028,-2.03,86,75,0.0,US,1698691245
87,claveria,18.6074,121.0832,25.32,85,95,5.8,PH,1698691245
88,soio,-6.1349,12.3689,25.95,87,27,4.34,AO,1698690761
89,howrah,22.5892,88.3103,26.0,73,60,0.0,IN,1698691246
90,weno,7.4515,151.8468,28.36,78,98,5.32,FM,1698691246
91,monachil,37.1332,-3.5372,12.62,68,66,1.63,ES,1698691246
92,kailua-kona,19.6406,-155.9956,29.17,71,0,1.54,US,1698690404
93,stanley,54.868,-1.6985,7.09,93,40,3.09,GB,1698691246
94,woodward,36.4337,-99.3904,7.57,42,0,4.63,US,1698691246
95,conde,-7.2597,-34.9075,29.7,54,20,6.69,BR,1698691247
96,port alfred,-33.5906,26.891,15.66,84,84,1.79,ZA,1698691247
97,bhanjanagar,19.9333,84.5833,20.55,76,0,0.68,IN,1698691247
98,uturoa,-16.7333,-151.4333,26.08,80,17,8.15,PF,1698691247
99,hasaki,35.7333,140.8333,12.22,60,23,3.74,JP,1698690692
100,thaba nchu,-29.2093,26.839,7.47,87,100,5.67,ZA,1698691248
101,lihue,21.9789,-159.3672,24.09,88,100,3.6,US,1698690989
102,extrema,-22.8547,-46.3183,23.74,85,66,0.26,BR,1698691138
103,aracruz,-19.8203,-40.2733,30.56,62,100,0.45,BR,1698691248
104,poxoreo,-15.8372,-54.3892,36.32,31,78,2.02,BR,1698691248
105,okha,53.5739,142.9478,4.05,88,100,6.39,RU,1698691123
106,abbeville,50.1,1.8333,11.39,96,100,3.5,FR,1698691249
107,kolokani,13.5728,-8.0339,28.26,43,78,3.14,ML,1698691249
108,sitka,57.0531,-135.33,8.94,71,100,5.14,US,1698691050
109,pisco,-13.7,-76.2167,23.03,64,0,4.63,PE,1698691249
110,port-vila,-17.7338,168.3219,22.78,88,100,1.54,VU,1698691249
111,kavaratti,10.5669,72.642,27.98,70,99,0.71,IN,1698690997
112,igrim,63.1906,64.4162,-8.66,84,100,2.62,RU,1698691250
113,livingston,55.9029,-3.5226,7.37,74,75,5.14,GB,1698691250
114,east london,-33.0153,27.9116,15.3,76,25,6.96,ZA,1698690977
115,kavieng,-2.5744,150.7967,25.16,86,100,3.19,PG,1698691250
116,yuzhno-kurilsk,44.0306,145.8556,7.99,76,55,3.66,RU,1698691190
117,aioun,16.6614,-9.6149,33.77,17,71,0.96,MR,1698691251
118,blackwater,-23.5833,148.8833,15.39,100,0,2.83,AU,1698691251
119,ugoofaaru,5.6667,73.0,27.55,75,100,2.69,MV,1698691251
120,petropavlovsk-kamchatsky,53.0452,158.6483,-0.3,82,75,4.92,RU,1698690972
121,gunjur,13.2019,-16.7339,30.04,74,40,2.57,GM,1698691252
122,xunchang,28.4543,104.715,17.76,82,82,0.44,CN,1698691252
123,afaahiti,-17.75,-149.2833,26.93,83,49,7.71,PF,1698691071
124,prado,-17.3411,-39.2208,26.18,67,99,5.44,BR,1698690947
125,fukuecho,32.6881,128.8419,18.7,56,0,3.67,JP,1698691056
126,port saint john's,-31.6229,29.5448,14.65,81,100,3.76,ZA,1698691252
127,bubaque,11.2833,-15.8333,28.58,67,100,1.78,GW,1698691253
128,st. john's,47.5649,-52.7093,6.55,49,75,7.2,CA,1698690992
129,saipan,15.1355,145.701,28.39,83,40,3.6,MP,1698691109
130,kachkanar,58.7,59.4948,-6.78,98,98,1.24,RU,1698691253
131,titao,13.7667,-2.0667,34.47,15,0,3.33,BF,1698691253
132,fortuna,40.5982,-124.1573,18.85,51,0,3.09,US,1698690862
133,kapuvar,47.5922,17.0289,19.14,63,100,7.24,HU,1698691254
134,majholi,23.5,79.9167,19.09,55,11,1.67,IN,1698691254
135,kapa'a,22.0752,-159.319,24.5,88,100,3.6,US,1698691154
136,greymouth,-42.4667,171.2,11.33,78,100,1.71,NZ,1698691254
137,sabha,27.0377,14.4283,25.24,25,4,3.93,LY,1698691254
138,flying fish cove,-10.4217,105.6791,25.82,88,75,4.63,CX,1698690971
139,uberlandia,-18.9186,-48.2772,31.56,45,20,4.12,BR,1698691255
140,lazaro cardenas,17.9583,-102.2,29.47,72,18,2.12,MX,1698690825
141,khash,28.2211,61.2158,20.54,32,10,3.05,IR,1698691255
142,fale old settlement,-9.3852,-171.2468,28.77,75,14,7.02,TK,1698691057
143,tolanaro,-25.0319,46.9987,25.04,83,75,4.12,MG,1698691063
144,miramichi,47.0043,-65.4654,-0.08,91,100,1.33,CA,1698691256
145,huaidian,33.4333,115.0333,18.25,58,0,3.53,CN,1698691256
146,invercargill,-46.4,168.35,6.68,96,100,1.63,NZ,1698690903
147,souillac,-20.5167,57.5167,25.21,83,40,3.09,MU,1698691256
148,ponta delgada,37.7333,-25.6667,19.55,72,20,3.09,PT,1698690994
149,coquimbo,-29.9533,-71.3436,19.85,59,0,7.2,CL,1698690797
150,bargaal,11.2864,51.0773,26.47,80,17,2.53,SO,1698691073
151,manggar,-2.8833,108.2667,27.7,76,98,3.28,ID,1698691257
152,bandarbeyla,9.4942,50.8122,26.8,79,80,3.23,SO,1698690866
153,acapulco de juarez,16.8634,-99.8901,29.32,74,28,1.97,MX,1698691114
154,arrifes,37.7667,-25.7,17.73,72,20,3.09,PT,1698691258
155,tual,-5.6667,132.75,27.57,79,100,5.04,ID,1698690987
156,mahibadhoo,3.7833,72.9667,28.01,72,73,3.93,MV,1698691258
157,vrangel',42.7297,133.0839,12.09,93,61,1.0,RU,1698691258
158,laguna,38.421,-121.4238,21.16,42,0,0.0,US,1698691258
159,puerto baquerizo moreno,-0.9,-89.6,27.55,65,75,6.17,EC,1698691008
160,mokhsogollokh,61.4681,128.9203,-19.11,99,93,1.65,RU,1698691259
161,ivdel',60.6911,60.4206,-4.43,65,100,4.02,RU,1698691259
162,mezzouna,34.5776,9.8419,27.84,19,99,3.52,TN,1698691259
163,nuku'alofa,-21.1333,-175.2,24.19,94,20,5.66,TO,1698691259
164,lebu,-37.6167,-73.65,11.32,56,56,5.24,CL,1698691038
165,ancud,-41.8697,-73.8203,9.61,52,35,4.8,CL,1698690719
166,meadow lakes,61.6247,-149.6011,6.17,71,0,0.0,US,1698691260
167,longyearbyen,78.2186,15.6401,0.91,69,75,4.12,SJ,1698690971
168,mhamid,29.82,-5.72,26.08,22,69,3.71,MA,1698691035
169,saint-pierre,-21.3393,55.4781,23.82,78,0,0.0,RE,1698691019
170,melfort,52.8667,-104.6177,-5.93,63,20,5.14,CA,1698691260
171,guane,22.2025,-84.0875,29.42,65,34,1.9,CU,1698691260
172,papao,-17.75,-149.55,27.82,83,16,9.07,PF,1698691261
173,trincomalee,8.5711,81.2335,27.14,78,25,2.89,LK,1698691261
174,cestos city,5.46,-9.5828,26.88,80,100,3.03,LR,1698691261
175,freetown,8.484,-13.2299,26.56,79,27,1.61,SL,1698691009
176,glace bay,46.1969,-59.957,4.56,88,100,2.06,CA,1698691262
177,vila do maio,15.1333,-23.2167,28.44,67,2,2.63,CV,1698691224
178,sao felix do xingu,-6.6447,-51.995,35.71,27,93,1.41,BR,1698691051
179,visakhapatnam,17.69,83.2093,24.94,83,40,3.09,IN,1698691263
180,ust-nera,64.5667,143.2,-18.13,99,87,1.81,RU,1698691009
181,rusera,25.75,86.0333,23.41,54,100,1.1,IN,1698691263
182,cuatro cienegas de carranza,26.9833,-102.0833,6.05,83,100,3.58,MX,1698691263
183,asind,25.7333,74.3333,22.52,40,11,1.86,IN,1698691264
184,urangan,-25.3,152.9,21.02,71,5,5.74,AU,1698691161
185,holualoa,19.6228,-155.9522,27.65,69,0,1.54,US,1698691126
186,champa,22.05,82.65,20.25,64,12,1.83,IN,1698691265
187,hithadhoo,-0.6,73.0833,26.81,82,14,5.33,MV,1698691139
188,ristiina,61.5058,27.2464,-1.94,87,100,2.18,FI,1698691266
189,kodinsk,58.6881,99.1844,-6.42,82,14,1.41,RU,1698691266
190,nova sintra,14.8667,-24.7167,23.55,63,43,0.84,CV,1698691120
191,okakarara,-20.5833,17.4333,26.4,10,73,6.83,NA,1698691267
192,berezovyy,51.6667,135.7,-1.65,55,3,4.02,RU,1698691267
193,vila franca do campo,37.7167,-25.4333,19.38,99,48,3.13,PT,1698691031
194,rokytne,51.2796,27.214,11.81,81,98,2.82,UA,1698691268
195,mejit,10.2753,170.8646,28.24,82,100,8.7,MH,1698691105
196,midvagur,62.0511,-7.1939,4.46,75,75,3.6,FO,1698691063
197,saynshand,44.8824,110.1163,1.06,71,39,3.03,MN,1698691269
198,porto novo,6.4965,2.6036,27.9,83,100,2.49,BJ,1698691269
199,guerrero negro,27.9769,-114.0611,25.26,32,0,2.54,MX,1698691269
200,touros,-5.1989,-35.4608,27.25,63,4,7.22,BR,1698690983
201,newman,37.3138,-121.0208,20.13,16,10,1.28,US,1698691163
202,kisangani,0.5167,25.2,26.2,83,20,2.06,CD,1698691270
203,akureyri,65.6835,-18.0878,-3.04,86,0,0.0,IS,1698691022
204,egilsstadir,65.2653,-14.3948,-3.05,86,0,2.06,IS,1698691224
205,la sarre,48.8002,-79.1996,0.07,59,100,4.37,CA,1698691271
206,ndele,8.4109,20.6473,25.59,54,8,1.24,CF,1698691271
207,vilyuchinsk,52.9306,158.4028,0.52,81,74,2.91,RU,1698691045
208,luderitz,-26.6481,15.1594,18.89,48,0,4.18,NA,1698691115
209,lubango,-14.9172,13.4925,19.34,46,0,2.27,AO,1698691017
210,dien bien phu,21.3833,103.0167,19.79,96,100,0.99,VN,1698691272
211,iskateley,67.6803,53.1512,-6.66,94,100,6.71,RU,1698690815
212,kenai,60.5544,-151.2583,4.52,88,0,4.63,US,1698691190
213,tazovsky,67.4667,78.7,-16.94,95,21,1.97,RU,1698691128
214,lorengau,-2.0226,147.2712,25.63,85,100,1.62,PG,1698691114
215,badger,64.8,-147.5333,-2.07,86,75,0.0,US,1698690955
216,rebrikha,53.0733,82.3408,2.89,99,100,4.89,RU,1698691274
217,kodiak,57.79,-152.4072,7.73,93,100,4.12,US,1698691078
218,bathsheba,13.2167,-59.5167,30.34,79,40,6.69,BB,1698691274
219,samarinda,-0.5,117.15,23.31,96,12,0.11,ID,1698691274
220,sinan,34.8262,126.1086,10.06,60,0,0.81,KR,1698691275
221,jindabyne,-36.4167,148.6333,5.35,73,1,3.08,AU,1698691275
222,melilla,35.2937,-2.9383,20.21,83,20,6.17,ES,1698691116
223,igis,46.9453,9.5722,12.27,94,100,3.26,CH,1698691275
224,mersa matruh,31.3525,27.2453,23.56,74,100,4.12,EG,1698691276
225,happy valley-goose bay,53.3168,-60.3315,2.17,41,75,8.23,CA,1698691169
226,galle,6.0367,80.217,25.22,85,94,1.43,LK,1698691276
227,isangel,-19.55,169.2667,20.79,70,20,3.7,VU,1698691277
228,meulaboh,4.1363,96.1285,25.01,88,100,0.15,ID,1698691277
229,manicore,-5.8092,-61.3003,31.55,51,54,2.7,BR,1698691277
230,san patricio,28.017,-97.5169,11.6,64,96,9.29,US,1698690956
231,vallenar,-28.5708,-70.7581,28.31,17,26,4.29,CL,1698691042
232,bilibino,68.0546,166.4372,-19.15,74,36,1.43,RU,1698690947
233,kerikeri,-35.2268,173.9474,17.17,96,97,0.89,NZ,1698691134
234,hue,16.4667,107.6,26.06,94,75,3.6,VN,1698691278
235,cabedelo,-6.9811,-34.8339,30.37,67,97,6.34,BR,1698690817
236,arraial do cabo,-22.9661,-42.0278,30.98,62,75,3.6,BR,1698691181
237,tralee,52.2704,-9.7026,9.14,93,0,1.03,IE,1698691017
238,dudinka,69.4058,86.1778,-16.32,97,100,0.89,RU,1698690933
239,porto seguro,-16.4497,-39.0647,29.29,58,20,7.2,BR,1698691280
240,forster,-32.1667,152.5167,14.6,93,60,2.17,AU,1698691280
241,puerto deseado,-47.7503,-65.8938,6.16,48,100,10.44,AR,1698691281
242,usogorsk,63.4106,48.6872,-3.52,83,100,1.25,RU,1698690758
243,rikaze,29.25,88.8833,3.23,49,5,1.42,CN,1698691281
244,janakpur,26.7183,85.9065,21.59,73,22,1.55,NP,1698691281
245,adamantina,-21.6853,-51.0725,34.09,40,11,0.45,BR,1698691282
246,hermanus,-34.4187,19.2345,15.03,73,0,11.24,ZA,1698690992
247,grassano,40.6346,16.2779,20.0,90,100,2.49,IT,1698691283
248,banda aceh,5.5577,95.3222,25.74,84,100,1.69,ID,1698690886
249,pariaman,-0.619,100.12,24.03,91,100,0.78,ID,1698691283
250,fort st. john,56.2499,-120.8529,1.94,60,75,4.63,CA,1698691013
251,cabo san lucas,22.8909,-109.9124,30.34,58,0,3.6,MX,1698690648
252,santana,-0.0583,-51.1817,35.1,46,40,6.69,BR,1698691284
253,berdigestyakh,62.0989,126.6992,-25.01,100,100,1.07,RU,1698690995
254,el nido,11.1858,119.3956,27.79,77,100,2.65,PH,1698691284
255,magadan,59.5667,150.8,-4.65,75,13,2.88,RU,1698691160
256,sarishabari,24.7333,89.8333,24.52,72,100,1.62,BD,1698691285
257,tazacorte,28.629,-17.9293,25.54,93,20,4.12,ES,1698690988
258,spinetta marengo,44.8862,8.6829,19.82,99,100,1.64,IT,1698691286
259,ghadamis,30.1337,9.5007,28.11,16,44,4.85,LY,1698691075
260,carboneras,37.0015,-1.9213,17.95,75,55,2.58,ES,1698691243
261,carutapera,-1.195,-46.02,29.67,62,2,4.54,BR,1698691222
262,al kharijah,25.4514,30.5464,26.21,42,0,3.65,EG,1698691288
263,merizo village,13.2658,144.6691,28.31,92,100,4.9,GU,1698691288
264,howard springs,-12.497,131.047,26.95,88,85,1.36,AU,1698691105
265,gorur,12.8194,76.0717,19.91,92,100,2.41,IN,1698691288
266,nurota,40.5614,65.6886,17.72,53,98,2.32,UZ,1698691289
267,thunder bay,48.4001,-89.3168,0.99,37,40,3.09,CA,1698691031
268,sainte-livrade-sur-lot,44.3993,0.5912,13.0,86,58,2.7,FR,1698691289
269,kota belud,6.351,116.4305,25.0,85,100,2.16,MY,1698691290
270,inarajan village,13.2736,144.7484,28.54,92,100,5.05,GU,1698691290
271,bagamoyo,-6.4333,38.9,24.6,89,70,3.95,TZ,1698691290
272,zheleznodorozhnyy,55.7503,38.0042,8.1,100,100,4.47,RU,1698691291
273,norrtalje,59.758,18.705,5.57,95,100,5.49,SE,1698691291
274,novaya igirma,57.1334,103.9112,-8.86,71,91,1.13,RU,1698691183
275,dompu,-8.5356,118.4622,23.56,95,77,0.72,ID,1698691291
276,kismayo,-0.3582,42.5454,26.81,79,3,3.6,SO,1698691189
277,port lincoln,-34.7333,135.8667,12.4,66,94,6.5,AU,1698690778
278,kapuskasing,49.4169,-82.4331,-0.95,64,40,3.6,CA,1698691160
279,rio grande,-32.035,-52.0986,21.06,86,100,3.7,BR,1698691292
280,leava,-14.3,-178.1667,27.14,83,5,4.36,WF,1698691210
281,nhamunda,-2.1861,-56.7131,39.78,22,58,2.56,BR,1698691293
282,angaur state,6.906,134.13,28.01,76,11,2.85,PW,1698691293
283,bartonville,40.6503,-89.652,5.69,60,40,3.09,US,1698691293
284,haiku-pauwela,20.9219,-156.3051,26.13,64,20,1.54,US,1698690968
285,kingston,17.997,-76.7936,31.53,75,20,3.6,JM,1698691101
286,nueva helvecia,-34.3,-57.2333,18.0,54,100,8.13,UY,1698691294
287,sangueya,10.7,-14.3667,25.59,89,93,2.1,GN,1698691294
288,yatagan,37.3403,28.1428,17.51,79,5,1.3,TR,1698691295
289,canutama,-6.5339,-64.3831,38.44,27,99,1.31,BR,1698691295
290,anadyr,64.75,177.4833,-0.72,100,100,7.0,RU,1698691127
291,san luis,-33.295,-66.3356,19.26,28,27,9.72,AR,1698691295
292,severnoye,56.3491,78.3619,-6.48,77,96,4.71,RU,1698691295
293,akdepe,42.0551,59.3788,15.05,70,0,3.99,TM,1698691296
294,crane,31.3974,-102.3501,4.28,41,100,4.78,US,1698691077
295,badulla,6.9895,81.0557,21.0,96,100,0.86,LK,1698691296
296,kotel'va,50.0686,34.7586,14.49,55,100,6.38,UA,1698691297
297,klyuchi,52.2667,79.1667,6.35,95,100,3.31,RU,1698690958
298,sabang,5.8933,95.3214,27.22,77,100,1.29,ID,1698691162
299,brookings,44.3114,-96.7984,3.92,56,0,6.69,US,1698691257
300,ulanhot,46.0833,122.0833,2.09,44,100,4.38,CN,1698691041
301,sosnovskoye,55.8052,43.167,3.6,99,100,5.13,RU,1698691297
302,gorontalo,0.5412,123.0595,23.6,91,55,0.87,ID,1698691298
303,pogar,52.554,33.2591,11.35,77,100,5.11,RU,1698691298
304,sarikei,2.1167,111.5167,25.05,99,97,0.41,MY,1698691298
305,malpica,43.3228,-8.8105,16.09,74,22,6.76,ES,1698691298
306,corumba,-19.0092,-57.6533,37.84,44,40,2.57,BR,1698691299
307,talcahuano,-36.7167,-73.1167,12.82,54,40,6.17,CL,1698691119
308,mana,5.6592,-53.7767,29.86,69,5,5.66,GF,1698691170
309,boende,-0.2167,20.8667,25.46,74,8,1.36,CD,1698691299
310,dauphin,51.1494,-100.0502,-3.92,63,100,10.8,CA,1698691299
311,kakonko,-3.2828,30.9642,22.33,61,88,1.76,TZ,1698691300
312,geraldton,-28.7667,114.6,13.23,76,0,4.63,AU,1698691021
313,severo-yeniseyskiy,60.3725,93.0408,-15.24,99,79,0.89,RU,1698691300
314,nyahururu,0.0421,36.3673,12.41,94,66,2.86,KE,1698691300
315,woolgoolga,-30.1106,153.2007,19.93,78,8,4.59,AU,1698691300
316,remire-montjoly,4.9167,-52.2667,32.02,58,98,4.63,GF,1698691084
317,ulsteinvik,62.3432,5.8487,4.86,59,0,3.13,NO,1698691093
318,upata,8.0086,-62.3989,29.85,57,100,1.13,VE,1698691301
319,pariyapuram,10.9561,76.1916,24.16,97,100,0.65,IN,1698691301
320,westport,41.1415,-73.3579,17.16,90,100,2.06,US,1698690727
321,shakawe,-18.3667,21.85,24.55,56,86,4.3,BW,1698691302
322,palikir - national government center,6.9248,158.1611,25.41,94,100,0.0,FM,1698690819
323,obudu,6.6674,9.1716,24.31,92,100,3.5,NG,1698691302
324,fort bragg,35.139,-79.006,29.34,46,0,5.66,US,1698691098
325,saint croix,17.7397,-64.7388,30.25,79,100,4.12,VI,1698691303
326,parsabad,39.6482,47.9174,15.18,77,0,4.12,IR,1698691303
327,ulety,51.3572,112.4849,-8.18,95,77,0.89,RU,1698691303
328,kikwit,-5.041,18.8162,25.77,78,87,1.26,CD,1698691303
329,biltine,14.5333,20.9167,31.19,15,9,3.24,TD,1698691303
330,alice springs,-23.7,133.8833,17.75,19,100,2.57,AU,1698691177
331,colonia,50.9333,6.95,13.75,90,20,4.12,DE,1698691133
332,bikenibeu village,1.3673,173.1241,23.98,100,100,2.06,KI,1698691020
333,zaragoza,41.6561,-0.8773,15.45,48,20,5.14,ES,1698690938
334,saudarkrokur,65.7461,-19.6394,-0.75,81,20,3.11,IS,1698691304
335,barreirinha,-2.7933,-57.07,37.8,27,100,0.61,BR,1698691305
336,sinabang,2.4803,96.3801,25.53,88,100,2.31,ID,1698691221
337,port hedland,-20.3167,118.5667,25.03,83,88,3.6,AU,1698691046
338,tura,25.5198,90.2201,20.18,87,100,1.52,IN,1698691003
339,laojunmiao,39.8333,97.7333,8.78,26,100,2.03,CN,1698691152
340,mount pearl,47.5166,-52.7813,6.09,49,75,7.2,CA,1698690889
341,maumere,-8.6199,122.2111,25.81,84,92,1.83,ID,1698691306
342,khanty-mansiysk,61.0042,69.0019,-10.94,73,0,3.13,RU,1698691306
343,wattegama,6.7989,81.4808,23.44,93,100,0.76,LK,1698691306
344,uttarkashi,30.7333,78.45,15.88,49,100,2.46,IN,1698691306
345,mazamari,-11.3258,-74.5308,34.27,44,94,0.96,PE,1698691306
346,gadzhiyevo,69.2551,33.3362,-5.68,90,100,8.2,RU,1698690797
347,kiruna,67.8557,20.2251,-16.49,85,0,4.12,SE,1698691307
348,sharm el-sheikh,27.8518,34.305,28.08,42,0,1.54,EG,1698691307
349,duzkoy,40.8728,39.4272,12.21,70,99,2.11,TR,1698691307
350,ta`u,-14.2336,-169.5144,26.86,82,47,12.03,AS,1698691307
351,daru,-9.0763,143.2092,25.45,84,100,5.84,PG,1698691308
352,pueblo nuevo,23.3833,-105.3833,22.0,52,4,3.06,MX,1698691308
353,naze,28.3667,129.4833,19.51,78,53,4.15,JP,1698690967
354,keflavik,64.0049,-22.5624,4.24,70,75,5.66,IS,1698690950
355,manta,-0.95,-80.7333,28.88,70,40,5.66,EC,1698691308
356,talnakh,69.4865,88.3972,-16.55,94,100,2.42,RU,1698690763
357,belmonte,-15.8631,-38.8828,26.44,61,100,4.7,BR,1698691309
358,arkhangel'sk,64.5401,40.5433,-4.37,81,58,1.47,RU,1698690946
359,broken hill,-31.95,141.4333,10.69,66,100,7.64,AU,1698691217
360,itati,-27.2704,-58.2446,28.32,54,44,3.23,AR,1698691309
361,fisterra,42.9049,-9.2629,16.12,73,12,8.72,ES,1698691309
362,kone,-21.0595,164.8658,20.1,73,99,1.94,NC,1698691310
363,tchintabaraden,15.8969,5.7985,31.88,8,100,3.7,NE,1698691310
364,broome,42.2506,-75.833,8.21,95,100,4.63,US,1698691310
365,tipasa,36.5897,2.4475,21.25,71,97,2.25,DZ,1698691310
366,port macquarie,-31.4333,152.9167,12.72,63,99,3.0,AU,1698691279
367,mufulira,-12.5498,28.2407,22.17,51,82,2.31,ZM,1698691310
368,prince rupert,54.3161,-130.3201,4.83,84,0,3.6,CA,1698691311
369,rio preto da eva,-2.6994,-59.6997,38.15,27,58,1.57,BR,1698691311
370,malango,-2.9627,119.9001,18.19,91,31,1.1,ID,1698691311
371,santa marta,11.2408,-74.199,33.03,68,20,2.57,CO,1698691099
372,chui,-33.6971,-53.4616,15.48,87,100,6.89,UY,1698691311
373,taghazout,30.5426,-9.7112,23.43,53,99,1.68,MA,1698691311
374,xinmin,41.9908,122.8253,11.08,95,9,3.59,CN,1698691312
375,zaraza,9.3503,-65.3245,33.06,50,99,1.55,VE,1698691312
376,argostolion,38.1811,20.489,22.08,56,20,0.0,GR,1698690960
377,dean funes,-30.4204,-64.3498,16.62,50,100,9.4,AR,1698691312
378,abingdon,51.6711,-1.2828,10.36,90,20,3.09,GB,1698691312
379,isla mujeres,21.2311,-86.731,30.09,67,1,3.53,MX,1698691312
380,codajas,-3.8367,-62.0569,38.34,27,45,0.87,BR,1698691313
381,hafar al-batin,28.4328,45.9708,25.32,29,40,2.06,SA,1698691313
382,tidjikja,18.5564,-11.4271,32.33,10,4,4.72,MR,1698691175
383,tomatlan,19.9333,-105.25,31.32,62,20,2.8,MX,1698691313
384,faya-largeau,17.9257,19.1043,28.26,14,5,6.02,TD,1698690968
385,nadym,65.5333,72.5167,-13.16,95,14,3.02,RU,1698691313
386,bulungu,-4.55,18.6,23.91,88,13,0.55,CD,1698691191
387,volda,62.1476,6.0741,4.73,79,0,0.0,NO,1698691314
388,palopo,-2.9996,120.1921,24.81,78,88,1.64,ID,1698691259
389,timra,62.487,17.3257,-2.18,86,100,2.57,SE,1698691314
390,richards bay,-28.783,32.0377,16.06,81,100,3.48,ZA,1698691314
391,korla,41.7597,86.1469,13.27,37,7,2.39,CN,1698691123
392,nuuk,64.1835,-51.7216,9.34,29,75,15.43,GL,1698690815
393,kudahuvadhoo,2.6708,72.8944,27.64,74,34,3.98,MV,1698691315
394,serpa,37.9458,-7.5975,15.98,66,100,2.25,PT,1698691315
395,kaka,37.3482,59.6143,21.5,50,100,5.4,TM,1698691315
396,santa ana,33.7456,-117.8678,26.8,10,40,8.23,US,1698690785
397,zalingei,12.9096,23.4741,27.48,18,35,2.6,SD,1698691231
398,simrishamn,55.5565,14.3504,9.04,88,59,7.13,SE,1698691316
399,villa gesell,-37.2639,-56.973,16.14,47,100,7.6,AR,1698691316
400,kruisfontein,-34.0033,24.7314,13.05,66,0,7.45,ZA,1698691151
401,kete krachi,7.7939,-0.0498,28.65,71,60,3.93,GH,1698691316
402,hammerfest,70.6634,23.6821,0.25,86,40,3.6,NO,1698690974
403,peace river,56.2501,-117.286,-0.83,80,100,1.54,CA,1698690700
404,sittwe,20.15,92.9,25.29,81,1,1.6,MM,1698691317
405,sorong,-0.8833,131.25,25.94,83,17,1.28,ID,1698691050
406,alcaniz,41.05,-0.1333,14.61,47,0,9.3,ES,1698691317
407,kralendijk,12.15,-68.2667,32.99,58,20,3.09,BQ,1698691017
408,pudasjarvi,65.3833,26.9167,-9.21,98,90,0.85,FI,1698691318
409,bugene,-1.5911,31.1403,17.26,72,34,1.21,TZ,1698691318
410,zhangye,38.9342,100.4517,11.29,24,13,3.14,CN,1698691318
411,cape canaveral,28.4058,-80.6048,30.04,66,0,4.63,US,1698691221
412,mechetinskaya,46.7713,40.456,12.32,69,19,3.38,RU,1698691318
413,kayes,14.0,-11.0,28.16,55,14,2.68,ML,1698691185
414,markha,62.1053,129.7269,-13.02,78,0,3.0,RU,1698691319
415,butiama,-1.7667,33.9667,19.61,82,96,1.87,TZ,1698691319
416,horta,38.5333,-28.6333,18.8,85,75,6.69,PT,1698691188
417,san javier,37.8063,-0.8374,21.84,43,0,4.47,ES,1698691319
418,vorgashor,67.5833,63.95,-13.88,91,100,3.07,RU,1698690949
419,fenoarivo atsinanana,-17.3667,49.4167,24.38,87,29,2.04,MG,1698691319
420,minab,27.1467,57.0801,27.97,58,91,0.71,IR,1698691320
421,tamiahua,21.2667,-97.45,21.95,85,100,11.55,MX,1698691320
422,maragogi,-9.0122,-35.2225,26.26,68,57,5.13,BR,1698691106
423,hadibu,12.65,54.0333,26.78,76,99,3.66,YE,1698691140
424,manokwari,-0.8667,134.0833,25.35,83,100,0.58,ID,1698691320
425,kununurra,-15.7667,128.7333,24.99,88,100,2.06,AU,1698691173
426,malvik,63.4333,10.6833,-5.23,86,0,2.57,NO,1698691321
427,le vauclin,14.5452,-60.8388,31.03,70,75,5.66,MQ,1698691321
428,vicksburg,32.3526,-90.8779,9.13,81,75,7.2,US,1698691321
429,vadso,70.0744,29.7487,-1.91,86,75,5.66,NO,1698691182
430,chongwe,-15.3292,28.682,21.67,67,77,4.12,ZM,1698691321
431,copiapo,-27.3667,-70.3333,19.83,19,98,4.9,CL,1698691168
432,kharp,66.8014,65.8081,-13.48,98,100,1.13,RU,1698691322
433,aral,40.5156,81.2636,14.23,28,98,0.92,CN,1698690996
434,pindushi,62.9152,34.58,-4.81,98,95,0.9,RU,1698691323
435,los andes,-32.8337,-70.5983,19.76,44,100,2.83,CL,1698691323
436,zhosaly,45.4878,64.0781,11.15,60,58,7.49,KZ,1698691323
437,baruun-urt,46.6806,113.2792,-5.93,87,26,2.78,MN,1698691324
438,shiyan,32.6475,110.7781,15.88,66,5,2.16,CN,1698691253
439,taltal,-25.4,-70.4833,19.92,64,11,2.9,CL,1698691221
440,new plymouth,-39.0667,174.0833,14.06,69,100,3.27,NZ,1698691324
441,bazar-korgon,41.0376,72.7459,12.07,38,100,1.63,KG,1698691324
442,sarande,39.8756,20.0053,18.85,90,0,0.97,AL,1698691325
443,greenland,43.0362,-70.8328,11.19,92,100,3.09,US,1698691325
444,bamboo flat,11.7,92.7167,27.69,79,95,2.7,IN,1698691167
445,lejanias,3.5251,-74.0216,25.67,87,100,1.25,CO,1698691326
446,hovd,48.0056,91.6419,4.6,56,100,2.78,MN,1698691326
447,gornyy,55.1153,83.9059,-4.79,87,100,5.01,RU,1698691326
448,sala,34.0389,-6.8166,20.42,83,40,2.06,MA,1698691327
449,kalmunai,7.4167,81.8167,25.84,81,23,1.56,LK,1698691327
450,patti,31.2808,74.8572,21.04,36,0,1.95,IN,1698691327
451,ilek,51.5271,53.3831,1.69,73,100,3.32,RU,1698691327
452,road town,18.4167,-64.6167,29.05,79,20,3.09,VG,1698691080
453,nurabad,34.0734,47.9725,13.34,39,100,0.21,IR,1698691328
454,narasannapeta,18.4167,84.05,22.21,80,13,2.39,IN,1698691329
455,raahe,64.6833,24.4833,-2.8,82,98,1.5,FI,1698691329
456,turan,16.0678,108.2208,22.99,100,75,2.06,VN,1698691329
457,blythe,33.6103,-114.5964,21.25,11,0,8.23,US,1698691330
458,lerwick,60.1545,-1.1494,7.0,57,29,9.97,GB,1698691220
459,zakynthos,37.7914,20.8953,20.36,88,0,0.0,GR,1698691330
460,galliano,29.4422,-90.2992,25.0,78,100,6.69,US,1698691331
461,visby,57.6409,18.296,9.12,93,75,6.69,SE,1698691331
462,praia da vitoria,38.7333,-27.0667,19.31,72,20,5.36,PT,1698691194
463,aykhal,66.0,111.5,-20.04,97,100,3.8,RU,1698691070
464,saint-joseph,-21.3667,55.6167,23.21,82,14,4.07,RE,1698691332
465,kapshagay,43.8833,77.0833,15.5,62,100,5.6,KZ,1698691332
466,saint-francois,46.4154,3.9054,10.69,89,100,2.06,FR,1698691332
467,boguchany,58.3814,97.4531,-7.86,79,7,1.34,RU,1698691332
468,mata-utu,-13.2816,-176.1745,28.13,76,23,5.22,WF,1698691333
469,auki,-8.7676,160.7034,25.1,90,100,2.12,SB,1698691174
470,kudymkar,59.0173,54.656,-6.69,99,80,1.0,RU,1698691333
471,ribeira brava,32.65,-17.0667,21.51,90,100,3.99,PT,1698691333
472,callao,-12.0667,-77.15,22.16,73,0,5.14,PE,1698690844
473,okondja,-0.6549,13.6753,25.25,79,38,0.8,GA,1698691339
474,qamdo,31.1667,97.2333,-3.81,71,97,1.66,CN,1698691340
475,luanda,-8.8368,13.2343,26.0,83,40,4.12,AO,1698691340
476,tsiombe,-25.3,45.4833,22.85,78,100,2.95,MG,1698691110
477,chizhou,30.6578,117.4831,17.3,57,0,1.01,CN,1698691340
478,villa ocampo,-28.4875,-59.3551,27.8,59,75,5.67,AR,1698691341
479,murzuq,25.9155,13.9184,24.61,25,0,3.69,LY,1698691341
480,wernigerode,51.8333,10.7833,14.23,92,100,1.81,DE,1698691341
481,swift current,50.2834,-107.8014,-6.55,68,20,8.75,CA,1698691341
482,champerico,14.3,-91.9167,32.3,73,100,5.88,GT,1698691116
483,kuhdasht,33.535,47.6061,19.16,36,100,0.81,IR,1698691342
484,steinkjer,64.193,11.3851,-8.48,77,5,1.15,NO,1698691342
485,lagos,6.5833,3.75,29.18,90,100,1.67,NG,1698691342
486,akrehamn,59.2667,5.1833,4.14,56,0,4.12,NO,1698691343
487,gigant,46.5066,41.3419,12.5,70,6,3.32,RU,1698691343
488,taoudenni,22.6783,-3.9836,33.55,9,68,1.79,ML,1698691043
489,gamba,-2.65,10.0,25.55,90,100,3.16,GA,1698691344
490,qingyuan,23.7,113.0333,20.99,83,100,2.11,CN,1698691344
491,aomori,40.8244,140.74,9.41,86,0,1.34,JP,1698691344
492,revda,56.801,59.9303,-7.59,99,98,0.58,RU,1698691344
493,chibougamau,49.9168,-74.3659,-2.21,86,100,3.09,CA,1698691227
494,vel'sk,61.0701,42.0983,-3.18,87,100,1.34,RU,1698691345
495,indramayu,-6.3264,108.32,27.7,71,16,2.24,ID,1698691345
496,sault ste. marie,46.5168,-84.3333,1.31,90,100,3.09,CA,1698691345
497,codrington,-38.2667,141.9667,9.26,61,51,7.37,AU,1698691248
498,porbandar,21.6422,69.6093,27.5,56,0,2.88,IN,1698691346
499,tadine,-21.55,167.8833,19.7,63,55,3.38,NC,1698691346
500,moussoro,13.6408,16.4901,32.62,12,0,4.89,TD,1698691346
501,burang,30.25,81.1667,-0.16,81,87,1.36,CN,1698691347
502,waingapu,-9.6567,120.2641,25.14,84,54,2.32,ID,1698691130
503,villanueva de la serena,38.9766,-5.7974,13.57,69,100,2.12,ES,1698691347
504,yaren,-0.5472,166.916,28.28,70,100,2.82,NR,1698691347
505,khorugh,37.4897,71.553,9.42,46,13,0.7,TJ,1698691348
506,nili,33.7218,66.1302,13.35,26,7,1.05,AF,1698691348
507,inyonga,-6.7167,32.0667,26.46,36,100,1.66,TZ,1698691348
508,timmins,48.4669,-81.3331,-1.1,55,75,4.63,CA,1698691348
509,manthani,18.65,79.6667,21.17,66,2,1.51,IN,1698691349
510,orenburg,51.7727,55.0988,1.01,67,100,5.69,RU,1698691104
511,huancabamba,-5.2386,-79.4506,18.57,81,100,2.49,PE,1698691349
512,debre birhan,9.6833,39.5333,9.3,88,5,2.32,ET,1698691349
513,xingcheng,40.6167,120.7167,12.27,82,93,1.42,CN,1698691350
514,pocatello,42.8713,-112.4455,4.26,41,0,1.34,US,1698691350
515,timbuktu,16.7735,-3.0074,34.18,10,100,3.76,ML,1698691011
516,mary,37.0,62.5,21.54,29,25,5.08,TM,1698691350
517,suva,-18.1416,178.4415,24.71,100,75,1.54,FJ,1698691351
518,flin flon,54.7682,-101.865,-6.09,63,75,5.66,CA,1698691092
519,rameswaram,9.2833,79.3,27.72,78,100,6.45,IN,1698691351
520,awjilah,29.1081,21.2869,23.85,45,100,3.7,LY,1698691352
521,arenapolis,-14.4503,-56.8461,34.94,36,85,1.26,BR,1698691352
522,salalah,17.0151,54.0924,27.05,78,0,2.06,OM,1698691352
523,puerto santa,-8.9906,-78.6456,20.92,80,99,5.35,PE,1698691090
524,chantada,42.6088,-7.7712,10.39,92,100,3.7,ES,1698691353
525,guiuan,11.0333,125.7247,28.02,77,46,5.09,PH,1698691353
526,vieux-habitants,16.0589,-61.7659,30.95,73,100,6.02,GP,1698691353
527,shihezi,44.3,86.0333,13.4,46,93,1.67,CN,1698691354
528,kayenta,36.7278,-110.2546,5.05,16,0,2.26,US,1698691107
529,kitui,-1.367,38.0106,19.61,87,25,2.84,KE,1698691354
530,boa vista,2.8197,-60.6733,34.99,38,40,2.57,BR,1698691355
531,petershagen,52.3833,8.9667,14.17,81,100,3.09,DE,1698691355
532,naryn,41.4287,75.9911,7.37,51,100,3.07,KG,1698691355
533,inari,68.906,27.0288,-11.89,94,90,2.11,FI,1698691355
534,la'ie,21.6477,-157.9253,28.36,75,7,1.79,US,1698691015
535,yekaterinoslavka,50.3734,129.1139,-5.31,56,85,1.67,RU,1698691356
536,diego de almagro,-26.3667,-70.05,26.05,14,16,6.74,CL,1698691289
537,mapastepec,15.4333,-92.9,29.42,76,42,2.69,MX,1698691356
538,virginia beach,36.8529,-75.978,29.47,48,0,7.2,US,1698691069
539,yermentau,51.6214,73.1069,5.84,78,100,5.37,KZ,1698691283
540,wynyard,-41.0,145.7167,6.66,75,22,6.71,AU,1698691129
541,sena madureira,-9.0656,-68.6569,37.93,29,100,1.55,BR,1698691315
542,bata,1.8639,9.7658,26.79,85,100,3.67,GQ,1698691357
543,chamrajnagar,11.9167,76.95,21.0,92,100,1.15,IN,1698691358
544,tari,12.4086,4.4914,31.7,16,81,4.29,NG,1698691358
545,cova figueira,14.8905,-24.2934,23.7,67,15,0.77,CV,1698691131
546,arkalyk,50.2486,66.9114,3.65,78,99,8.02,KZ,1698691133
547,cerro azul,21.2,-97.7333,20.96,84,94,7.94,MX,1698691359
548,chinch'on,36.8567,127.4433,11.63,100,20,0.51,KR,1698691359
549,kourou,5.1552,-52.6478,32.03,63,90,4.57,GF,1698691359
550,tekeli,44.83,78.8239,11.01,61,100,4.84,KZ,1698691359
551,cheria,35.2731,7.7519,22.12,26,100,4.44,DZ,1698691360
552,sanibel,26.449,-82.0223,31.7,65,100,1.79,US,1698691360
553,linxia chengguanzhen,35.6003,103.2064,9.57,49,12,1.57,CN,1698691360
554,ballina,-28.8667,153.5667,16.67,83,0,3.86,AU,1698691360
555,jiuquan,39.7432,98.5174,11.33,22,98,0.93,CN,1698691360
556,cotacachi,0.3,-78.2667,22.75,63,100,2.28,EC,1698691361
557,sibiti,-3.6819,13.3499,22.51,92,91,1.0,CG,1698691361
558,obo,5.3998,26.4869,23.47,84,83,1.66,CF,1698691361
559,sabzevar,36.2126,57.6819,18.27,51,57,4.29,IR,1698691361
